[
  {
    "name": "Bay Minette",
    "lat": 30.88296,
    "lon": -87.77305,
    "population": 0
  },
  {
    "name": "Edna",
    "lat": 28.97859,
    "lon": -96.64609,
    "population": 0
  },
  {
    "name": "Bayou La Batre",
    "lat": 30.40352,
    "lon": -88.24852,
    "population": 0
  },
  {
    "name": "Henderson",
    "lat": 32.15322,
    "lon": -94.79938,
    "population": 0
  },
  {
    "name": "Natalia",
    "lat": 29.18968,
    "lon": -98.86253,
    "population": 0
  },
  {
    "name": "Bear Creek",
    "lat": 34.27482,
    "lon": -87.70058,
    "population": 0
  },
  {
    "name": "Fort Hunt",
    "lat": 38.73289,
    "lon": -77.05803,
    "population": 0
  },
  {
    "name": "Yorktown",
    "lat": 37.23876,
    "lon": -76.50967,
    "population": 0
  },
  {
    "name": "Brighton",
    "lat": 33.43428,
    "lon": -86.94721,
    "population": 0
  },
  {
    "name": "Ocean View",
    "lat": 38.54511,
    "lon": -75.08907,
    "population": 0
  },
  {
    "name": "Berry",
    "lat": 33.65983,
    "lon": -87.60001,
    "population": 0
  },
  {
    "name": "Trinity",
    "lat": 28.18085,
    "lon": -82.68177,
    "population": 0
  },
  {
    "name": "Villas",
    "lat": 26.55035,
    "lon": -81.8687,
    "population": 0
  },
  {
    "name": "Bessemer",
    "lat": 33.40178,
    "lon": -86.95444,
    "population": 0
  },
  {
    "name": "Aurora",
    "lat": 39.057,
    "lon": -84.90134,
    "population": 0
  },
  {
    "name": "New Pekin",
    "lat": 38.50506,
    "lon": -86.01692,
    "population": 0
  },
  {
    "name": "Stockton",
    "lat": 39.43807,
    "lon": -99.2651,
    "population": 0
  },
  {
    "name": "Paducah",
    "lat": 37.08339,
    "lon": -88.60005,
    "population": 0
  },
  {
    "name": "Monticello",
    "lat": 32.59653,
    "lon": -91.394,
    "population": 0
  },
  {
    "name": "Red Chute",
    "lat": 32.55598,
    "lon": -93.61323,
    "population": 0
  },
  {
    "name": "Jessup",
    "lat": 39.14927,
    "lon": -76.77525,
    "population": 0
  },
  {
    "name": "Birmingham",
    "lat": 33.52066,
    "lon": -86.80249,
    "population": 0
  },
  {
    "name": "Delhi Hills",
    "lat": 39.09284,
    "lon": -84.61272,
    "population": 0
  },
  {
    "name": "Turpin Hills",
    "lat": 39.11006,
    "lon": -84.37994,
    "population": 0
  },
  {
    "name": "Lugoff",
    "lat": 34.22737,
    "lon": -80.68925,
    "population": 0
  },
  {
    "name": "Blountsville",
    "lat": 34.08149,
    "lon": -86.5911,
    "population": 0
  },
  {
    "name": "Blue Ridge",
    "lat": 32.49264,
    "lon": -86.19052,
    "population": 0
  },
  {
    "name": "Buda",
    "lat": 30.08521,
    "lon": -97.84028,
    "population": 0
  },
  {
    "name": "Boaz",
    "lat": 34.20065,
    "lon": -86.16637,
    "population": 0
  },
  {
    "name": "Brent",
    "lat": 32.93735,
    "lon": -87.16472,
    "population": 0
  },
  {
    "name": "Brewton",
    "lat": 31.10518,
    "lon": -87.07219,
    "population": 0
  },
  {
    "name": "Bridgeport",
    "lat": 34.94758,
    "lon": -85.71442,
    "population": 0
  },
  {
    "name": "Brook Highland",
    "lat": 33.43566,
    "lon": -86.67388,
    "population": 0
  },
  {
    "name": "Brookside",
    "lat": 33.63788,
    "lon": -86.91666,
    "population": 0
  },
  {
    "name": "Brookwood",
    "lat": 33.25567,
    "lon": -87.32083,
    "population": 0
  },
  {
    "name": "Brundidge",
    "lat": 31.72016,
    "lon": -85.81606,
    "population": 0
  },
  {
    "name": "Butler",
    "lat": 32.08959,
    "lon": -88.22197,
    "population": 0
  },
  {
    "name": "Bynum",
    "lat": 33.61316,
    "lon": -85.96108,
    "population": 0
  },
  {
    "name": "Cahaba Heights",
    "lat": 33.464,
    "lon": -86.73193,
    "population": 0
  },
  {
    "name": "Calera",
    "lat": 33.1029,
    "lon": -86.7536,
    "population": 0
  },
  {
    "name": "Camden",
    "lat": 31.99098,
    "lon": -87.29055,
    "population": 0
  },
  {
    "name": "Carbon Hill",
    "lat": 33.89177,
    "lon": -87.52612,
    "population": 0
  },
  {
    "name": "Carrollton",
    "lat": 33.26169,
    "lon": -88.09503,
    "population": 0
  },
  {
    "name": "Cedar Bluff",
    "lat": 34.22009,
    "lon": -85.60774,
    "population": 0
  },
  {
    "name": "Center Point",
    "lat": 33.64566,
    "lon": -86.6836,
    "population": 0
  },
  {
    "name": "Centre",
    "lat": 34.15204,
    "lon": -85.67885,
    "population": 0
  },
  {
    "name": "Centreville",
    "lat": 32.9462,
    "lon": -87.11669,
    "population": 0
  },
  {
    "name": "Chalkville",
    "lat": 33.65316,
    "lon": -86.64777,
    "population": 0
  },
  {
    "name": "Chatom",
    "lat": 31.46517,
    "lon": -88.25446,
    "population": 0
  },
  {
    "name": "Chelsea",
    "lat": 33.34011,
    "lon": -86.63026,
    "population": 0
  },
  {
    "name": "Cherokee",
    "lat": 34.75703,
    "lon": -87.97281,
    "population": 0
  },
  {
    "name": "Chickasaw",
    "lat": 30.7638,
    "lon": -88.07472,
    "population": 0
  },
  {
    "name": "Childersburg",
    "lat": 33.27817,
    "lon": -86.35498,
    "population": 0
  },
  {
    "name": "Choccolocco",
    "lat": 33.65927,
    "lon": -85.70357,
    "population": 0
  },
  {
    "name": "Citronelle",
    "lat": 31.09073,
    "lon": -88.22806,
    "population": 0
  },
  {
    "name": "Clanton",
    "lat": 32.83874,
    "lon": -86.62943,
    "population": 0
  },
  {
    "name": "Clay",
    "lat": 33.7026,
    "lon": -86.59971,
    "population": 0
  },
  {
    "name": "Clayton",
    "lat": 31.87822,
    "lon": -85.44966,
    "population": 0
  },
  {
    "name": "Cleveland",
    "lat": 33.99093,
    "lon": -86.57749,
    "population": 0
  },
  {
    "name": "Clio",
    "lat": 31.70878,
    "lon": -85.6105,
    "population": 0
  },
  {
    "name": "Coaling",
    "lat": 33.15901,
    "lon": -87.34083,
    "population": 0
  },
  {
    "name": "Collinsville",
    "lat": 34.26398,
    "lon": -85.86053,
    "population": 0
  },
  {
    "name": "Columbiana",
    "lat": 33.17817,
    "lon": -86.60721,
    "population": 0
  },
  {
    "name": "Concord",
    "lat": 33.46761,
    "lon": -87.03111,
    "population": 0
  },
  {
    "name": "Coosada",
    "lat": 32.49791,
    "lon": -86.33136,
    "population": 0
  },
  {
    "name": "Cordova",
    "lat": 33.75983,
    "lon": -87.18333,
    "population": 0
  },
  {
    "name": "Cottonwood",
    "lat": 31.04879,
    "lon": -85.30493,
    "population": 0
  },
  {
    "name": "Cowarts",
    "lat": 31.20018,
    "lon": -85.30465,
    "population": 0
  },
  {
    "name": "Creola",
    "lat": 30.89185,
    "lon": -88.03972,
    "population": 0
  },
  {
    "name": "Crossville",
    "lat": 34.28759,
    "lon": -85.99414,
    "population": 0
  },
  {
    "name": "Cullman",
    "lat": 34.17482,
    "lon": -86.84361,
    "population": 0
  },
  {
    "name": "Dadeville",
    "lat": 32.83124,
    "lon": -85.76357,
    "population": 0
  },
  {
    "name": "Daleville",
    "lat": 31.31017,
    "lon": -85.71299,
    "population": 0
  },
  {
    "name": "Danville",
    "lat": 34.41454,
    "lon": -87.08751,
    "population": 0
  },
  {
    "name": "Daphne",
    "lat": 30.60353,
    "lon": -87.9036,
    "population": 0
  },
  {
    "name": "Dauphin Island",
    "lat": 30.25548,
    "lon": -88.10972,
    "population": 0
  },
  {
    "name": "Deatsville",
    "lat": 32.60819,
    "lon": -86.39581,
    "population": 0
  },
  {
    "name": "Decatur",
    "lat": 34.60593,
    "lon": -86.98334,
    "population": 0
  },
  {
    "name": "Demopolis",
    "lat": 32.51764,
    "lon": -87.8364,
    "population": 0
  },
  {
    "name": "Dora",
    "lat": 33.72872,
    "lon": -87.09028,
    "population": 0
  },
  {
    "name": "Dothan",
    "lat": 31.22323,
    "lon": -85.39049,
    "population": 0
  },
  {
    "name": "Double Springs",
    "lat": 34.14637,
    "lon": -87.40247,
    "population": 0
  },
  {
    "name": "East Brewton",
    "lat": 31.09323,
    "lon": -87.06275,
    "population": 0
  },
  {
    "name": "East Florence",
    "lat": 34.80953,
    "lon": -87.64947,
    "population": 0
  },
  {
    "name": "Eclectic",
    "lat": 32.63541,
    "lon": -86.03441,
    "population": 0
  },
  {
    "name": "Elberta",
    "lat": 30.41436,
    "lon": -87.59776,
    "population": 0
  },
  {
    "name": "Enterprise",
    "lat": 31.31517,
    "lon": -85.85522,
    "population": 0
  },
  {
    "name": "Eufaula",
    "lat": 31.89127,
    "lon": -85.14549,
    "population": 0
  },
  {
    "name": "Eutaw",
    "lat": 32.84059,
    "lon": -87.88762,
    "population": 0
  },
  {
    "name": "Evergreen",
    "lat": 31.4335,
    "lon": -86.95692,
    "population": 0
  },
  {
    "name": "Fairfield",
    "lat": 33.48594,
    "lon": -86.91194,
    "population": 0
  },
  {
    "name": "Fairhope",
    "lat": 30.52297,
    "lon": -87.90333,
    "population": 0
  },
  {
    "name": "Falkville",
    "lat": 34.36843,
    "lon": -86.90862,
    "population": 0
  },
  {
    "name": "Fayette",
    "lat": 33.68455,
    "lon": -87.83085,
    "population": 0
  },
  {
    "name": "Fayetteville",
    "lat": 33.14567,
    "lon": -86.40581,
    "population": 0
  },
  {
    "name": "Flint City",
    "lat": 34.52315,
    "lon": -86.97029,
    "population": 0
  },
  {
    "name": "Florala",
    "lat": 31.00518,
    "lon": -86.328,
    "population": 0
  },
  {
    "name": "Florence",
    "lat": 34.79981,
    "lon": -87.67725,
    "population": 0
  },
  {
    "name": "Flomaton",
    "lat": 31.00018,
    "lon": -87.26081,
    "population": 0
  },
  {
    "name": "Foley",
    "lat": 30.40659,
    "lon": -87.6836,
    "population": 0
  },
  {
    "name": "Forestdale",
    "lat": 33.57011,
    "lon": -86.89638,
    "population": 0
  },
  {
    "name": "Fort Deposit",
    "lat": 31.98459,
    "lon": -86.57859,
    "population": 0
  },
  {
    "name": "Fort Payne",
    "lat": 34.44425,
    "lon": -85.71969,
    "population": 0
  },
  {
    "name": "Frisco City",
    "lat": 31.4335,
    "lon": -87.40138,
    "population": 0
  },
  {
    "name": "Fultondale",
    "lat": 33.60483,
    "lon": -86.79388,
    "population": 0
  },
  {
    "name": "Fyffe",
    "lat": 34.44676,
    "lon": -85.90414,
    "population": 0
  },
  {
    "name": "Gadsden",
    "lat": 34.01434,
    "lon": -86.00639,
    "population": 0
  },
  {
    "name": "Gardendale",
    "lat": 33.6601,
    "lon": -86.81277,
    "population": 0
  },
  {
    "name": "Geneva",
    "lat": 31.03296,
    "lon": -85.86382,
    "population": 0
  },
  {
    "name": "Georgiana",
    "lat": 31.6371,
    "lon": -86.74192,
    "population": 0
  },
  {
    "name": "Glencoe",
    "lat": 33.95704,
    "lon": -85.93247,
    "population": 0
  },
  {
    "name": "Good Hope",
    "lat": 34.11593,
    "lon": -86.86361,
    "population": 0
  },
  {
    "name": "Goodwater",
    "lat": 33.06567,
    "lon": -86.0533,
    "population": 0
  },
  {
    "name": "Gordo",
    "lat": 33.32012,
    "lon": -87.9028,
    "population": 0
  },
  {
    "name": "Grand Bay",
    "lat": 30.47631,
    "lon": -88.34223,
    "population": 0
  },
  {
    "name": "Grayson Valley",
    "lat": 33.64816,
    "lon": -86.63943,
    "population": 0
  },
  {
    "name": "Graysville",
    "lat": 33.62066,
    "lon": -86.97138,
    "population": 0
  },
  {
    "name": "Greensboro",
    "lat": 32.70415,
    "lon": -87.5955,
    "population": 0
  },
  {
    "name": "Greenville",
    "lat": 31.8296,
    "lon": -86.61775,
    "population": 0
  },
  {
    "name": "Grove Hill",
    "lat": 31.70877,
    "lon": -87.77722,
    "population": 0
  },
  {
    "name": "Guin",
    "lat": 33.96566,
    "lon": -87.91475,
    "population": 0
  },
  {
    "name": "Gulf Shores",
    "lat": 30.24604,
    "lon": -87.70082,
    "population": 0
  },
  {
    "name": "Guntersville",
    "lat": 34.35823,
    "lon": -86.29446,
    "population": 0
  },
  {
    "name": "Hackleburg",
    "lat": 34.27732,
    "lon": -87.82864,
    "population": 0
  },
  {
    "name": "Haleyville",
    "lat": 34.22649,
    "lon": -87.62141,
    "population": 0
  },
  {
    "name": "Hamilton",
    "lat": 34.14232,
    "lon": -87.98864,
    "population": 0
  },
  {
    "name": "Hanceville",
    "lat": 34.06065,
    "lon": -86.7675,
    "population": 0
  },
  {
    "name": "Harpersville",
    "lat": 33.344,
    "lon": -86.43804,
    "population": 0
  },
  {
    "name": "Hartford",
    "lat": 31.1024,
    "lon": -85.69688,
    "population": 0
  },
  {
    "name": "Hartselle",
    "lat": 34.44343,
    "lon": -86.93528,
    "population": 0
  },
  {
    "name": "Harvest",
    "lat": 34.85564,
    "lon": -86.75083,
    "population": 0
  },
  {
    "name": "Hayden",
    "lat": 33.8926,
    "lon": -86.75777,
    "population": 0
  },
  {
    "name": "Hayneville",
    "lat": 32.18403,
    "lon": -86.58025,
    "population": 0
  },
  {
    "name": "Hazel Green",
    "lat": 34.93231,
    "lon": -86.57194,
    "population": 0
  },
  {
    "name": "Headland",
    "lat": 31.35128,
    "lon": -85.34216,
    "population": 0
  },
  {
    "name": "Heflin",
    "lat": 33.64899,
    "lon": -85.58746,
    "population": 0
  },
  {
    "name": "Helena",
    "lat": 33.29622,
    "lon": -86.8436,
    "population": 0
  },
  {
    "name": "Henagar",
    "lat": 34.63508,
    "lon": -85.76719,
    "population": 0
  },
  {
    "name": "Hokes Bluff",
    "lat": 33.99815,
    "lon": -85.86636,
    "population": 0
  },
  {
    "name": "Holt",
    "lat": 33.23401,
    "lon": -87.48445,
    "population": 0
  },
  {
    "name": "Holtville",
    "lat": 32.63624,
    "lon": -86.32664,
    "population": 0
  },
  {
    "name": "Homewood",
    "lat": 33.47177,
    "lon": -86.80082,
    "population": 0
  },
  {
    "name": "Hoover",
    "lat": 33.40539,
    "lon": -86.81138,
    "population": 0
  },
  {
    "name": "Horton",
    "lat": 34.20093,
    "lon": -86.29692,
    "population": 0
  },
  {
    "name": "Hueytown",
    "lat": 33.45122,
    "lon": -86.99666,
    "population": 0
  },
  {
    "name": "Huguley",
    "lat": 32.83457,
    "lon": -85.22966,
    "population": 0
  },
  {
    "name": "Huntsville",
    "lat": 34.7304,
    "lon": -86.58594,
    "population": 0
  },
  {
    "name": "Indian Springs Village",
    "lat": 33.35539,
    "lon": -86.75443,
    "population": 0
  },
  {
    "name": "Inverness",
    "lat": 32.01488,
    "lon": -85.74606,
    "population": 0
  },
  {
    "name": "Irondale",
    "lat": 33.53816,
    "lon": -86.70721,
    "population": 0
  },
  {
    "name": "Jackson",
    "lat": 31.50905,
    "lon": -87.89444,
    "population": 0
  },
  {
    "name": "Jacksonville",
    "lat": 33.81382,
    "lon": -85.7613,
    "population": 0
  },
  {
    "name": "Jasper",
    "lat": 33.83122,
    "lon": -87.27751,
    "population": 0
  },
  {
    "name": "Jemison",
    "lat": 32.95985,
    "lon": -86.74665,
    "population": 0
  },
  {
    "name": "Kimberly",
    "lat": 33.77344,
    "lon": -86.81388,
    "population": 0
  },
  {
    "name": "Kinsey",
    "lat": 31.29906,
    "lon": -85.34438,
    "population": 0
  },
  {
    "name": "Ladonia",
    "lat": 32.4682,
    "lon": -85.0791,
    "population": 0
  },
  {
    "name": "Lafayette",
    "lat": 32.89985,
    "lon": -85.40106,
    "population": 0
  },
  {
    "name": "Lake Purdy",
    "lat": 33.43011,
    "lon": -86.68054,
    "population": 0
  },
  {
    "name": "Lake View",
    "lat": 33.28067,
    "lon": -87.1375,
    "population": 0
  },
  {
    "name": "Lanett",
    "lat": 32.86874,
    "lon": -85.1905,
    "population": 0
  },
  {
    "name": "Leeds",
    "lat": 33.54816,
    "lon": -86.54443,
    "population": 0
  },
  {
    "name": "Leesburg",
    "lat": 34.17982,
    "lon": -85.76136,
    "population": 0
  },
  {
    "name": "Level Plains",
    "lat": 31.29962,
    "lon": -85.77799,
    "population": 0
  },
  {
    "name": "Linden",
    "lat": 32.30625,
    "lon": -87.79807,
    "population": 0
  },
  {
    "name": "Lincoln",
    "lat": 33.61316,
    "lon": -86.11831,
    "population": 0
  },
  {
    "name": "Lineville",
    "lat": 33.31067,
    "lon": -85.75441,
    "population": 0
  },
  {
    "name": "Lipscomb",
    "lat": 33.42566,
    "lon": -86.92666,
    "population": 0
  },
  {
    "name": "Livingston",
    "lat": 32.5843,
    "lon": -88.18725,
    "population": 0
  },
  {
    "name": "Locust Fork",
    "lat": 33.9076,
    "lon": -86.61527,
    "population": 0
  },
  {
    "name": "Loxley",
    "lat": 30.61825,
    "lon": -87.75305,
    "population": 0
  },
  {
    "name": "Luverne",
    "lat": 31.71655,
    "lon": -86.26385,
    "population": 0
  },
  {
    "name": "Madison",
    "lat": 34.69926,
    "lon": -86.74833,
    "population": 0
  },
  {
    "name": "Malvern",
    "lat": 31.13934,
    "lon": -85.5191,
    "population": 0
  },
  {
    "name": "Marbury",
    "lat": 32.70124,
    "lon": -86.47109,
    "population": 0
  },
  {
    "name": "Margaret",
    "lat": 33.68621,
    "lon": -86.47498,
    "population": 0
  },
  {
    "name": "Marion",
    "lat": 32.63235,
    "lon": -87.31917,
    "population": 0
  },
  {
    "name": "Meadowbrook",
    "lat": 33.40205,
    "lon": -86.69665,
    "population": 0
  },
  {
    "name": "Meridianville",
    "lat": 34.85148,
    "lon": -86.57222,
    "population": 0
  },
  {
    "name": "Midfield",
    "lat": 33.4615,
    "lon": -86.90888,
    "population": 0
  },
  {
    "name": "Midland City",
    "lat": 31.31906,
    "lon": -85.49382,
    "population": 0
  },
  {
    "name": "Mignon",
    "lat": 33.18345,
    "lon": -86.26109,
    "population": 0
  },
  {
    "name": "Millbrook",
    "lat": 32.47986,
    "lon": -86.36192,
    "population": 0
  },
  {
    "name": "Minor",
    "lat": 33.53733,
    "lon": -86.94055,
    "population": 0
  },
  {
    "name": "Mobile",
    "lat": 30.69436,
    "lon": -88.04305,
    "population": 0
  },
  {
    "name": "Monroeville",
    "lat": 31.52794,
    "lon": -87.32471,
    "population": 0
  },
  {
    "name": "Montevallo",
    "lat": 33.10067,
    "lon": -86.86416,
    "population": 0
  },
  {
    "name": "Montgomery",
    "lat": 32.36681,
    "lon": -86.29997,
    "population": 0
  },
  {
    "name": "Moody",
    "lat": 33.59094,
    "lon": -86.49082,
    "population": 0
  },
  {
    "name": "Moores Mill",
    "lat": 34.84398,
    "lon": -86.51832,
    "population": 0
  },
  {
    "name": "Morris",
    "lat": 33.74816,
    "lon": -86.8086,
    "population": 0
  },
  {
    "name": "Moulton",
    "lat": 34.48121,
    "lon": -87.29335,
    "population": 0
  },
  {
    "name": "Moundville",
    "lat": 32.99762,
    "lon": -87.63001,
    "population": 0
  },
  {
    "name": "Mount Olive",
    "lat": 33.67094,
    "lon": -86.8561,
    "population": 0
  },
  {
    "name": "Mount Vernon",
    "lat": 31.08518,
    "lon": -88.01333,
    "population": 0
  },
  {
    "name": "Mountain Brook",
    "lat": 33.50094,
    "lon": -86.75221,
    "population": 0
  },
  {
    "name": "Munford",
    "lat": 33.52983,
    "lon": -85.9508,
    "population": 0
  },
  {
    "name": "Muscle Shoals",
    "lat": 34.74481,
    "lon": -87.66753,
    "population": 0
  },
  {
    "name": "New Brockton",
    "lat": 31.38572,
    "lon": -85.92939,
    "population": 0
  },
  {
    "name": "New Hope",
    "lat": 34.53712,
    "lon": -86.39426,
    "population": 0
  },
  {
    "name": "New Market",
    "lat": 34.91003,
    "lon": -86.42779,
    "population": 0
  },
  {
    "name": "Newton",
    "lat": 31.33517,
    "lon": -85.60521,
    "population": 0
  },
  {
    "name": "North Bibb",
    "lat": 33.20401,
    "lon": -87.15305,
    "population": 0
  },
  {
    "name": "Northport",
    "lat": 33.22901,
    "lon": -87.57723,
    "population": 0
  },
  {
    "name": "Odenville",
    "lat": 33.67732,
    "lon": -86.39665,
    "population": 0
  },
  {
    "name": "Ohatchee",
    "lat": 33.78343,
    "lon": -86.00247,
    "population": 0
  },
  {
    "name": "Opelika",
    "lat": 32.64541,
    "lon": -85.37828,
    "population": 0
  },
  {
    "name": "Oneonta",
    "lat": 33.94815,
    "lon": -86.47276,
    "population": 0
  },
  {
    "name": "Opp",
    "lat": 31.28267,
    "lon": -86.25551,
    "population": 0
  },
  {
    "name": "Orange Beach",
    "lat": 30.29437,
    "lon": -87.57359,
    "population": 0
  },
  {
    "name": "Owens Cross Roads",
    "lat": 34.58815,
    "lon": -86.45888,
    "population": 0
  },
  {
    "name": "Oxford",
    "lat": 33.61427,
    "lon": -85.83496,
    "population": 0
  },
  {
    "name": "Ozark",
    "lat": 31.45906,
    "lon": -85.64049,
    "population": 0
  },
  {
    "name": "Pelham",
    "lat": 33.28567,
    "lon": -86.80999,
    "population": 0
  },
  {
    "name": "Pell City",
    "lat": 33.58621,
    "lon": -86.28609,
    "population": 0
  },
  {
    "name": "Phenix City",
    "lat": 32.47098,
    "lon": -85.00077,
    "population": 0
  },
  {
    "name": "Phil Campbell",
    "lat": 34.35093,
    "lon": -87.70642,
    "population": 0
  },
  {
    "name": "Piedmont",
    "lat": 33.92455,
    "lon": -85.61135,
    "population": 0
  },
  {
    "name": "Pike Road",
    "lat": 32.28431,
    "lon": -86.10302,
    "population": 0
  },
  {
    "name": "Pine Level",
    "lat": 32.58374,
    "lon": -86.46553,
    "population": 0
  },
  {
    "name": "Pinson",
    "lat": 33.68899,
    "lon": -86.68332,
    "population": 0
  },
  {
    "name": "Pleasant Grove",
    "lat": 33.49094,
    "lon": -86.97027,
    "population": 0
  },
  {
    "name": "Point Clear",
    "lat": 30.47408,
    "lon": -87.91916,
    "population": 0
  },
  {
    "name": "Prattville",
    "lat": 32.46402,
    "lon": -86.4597,
    "population": 0
  },
  {
    "name": "Priceville",
    "lat": 34.52509,
    "lon": -86.89473,
    "population": 0
  },
  {
    "name": "Prichard",
    "lat": 30.7388,
    "lon": -88.07889,
    "population": 0
  },
  {
    "name": "Ragland",
    "lat": 33.74454,
    "lon": -86.15581,
    "population": 0
  },
  {
    "name": "Rainbow City",
    "lat": 33.95482,
    "lon": -86.04192,
    "population": 0
  },
  {
    "name": "Rainsville",
    "lat": 34.49425,
    "lon": -85.84775,
    "population": 0
  },
  {
    "name": "Red Bay",
    "lat": 34.43982,
    "lon": -88.14087,
    "population": 0
  },
  {
    "name": "Reform",
    "lat": 33.37845,
    "lon": -88.0153,
    "population": 0
  },
  {
    "name": "Rehobeth",
    "lat": 31.12296,
    "lon": -85.45271,
    "population": 0
  },
  {
    "name": "Riverside",
    "lat": 33.60621,
    "lon": -86.20442,
    "population": 0
  },
  {
    "name": "Roanoke",
    "lat": 33.15123,
    "lon": -85.37217,
    "population": 0
  },
  {
    "name": "Robertsdale",
    "lat": 30.5538,
    "lon": -87.71193,
    "population": 0
  },
  {
    "name": "Rock Creek",
    "lat": 33.47705,
    "lon": -87.08027,
    "population": 0
  },
  {
    "name": "Rockford",
    "lat": 32.88957,
    "lon": -86.21969,
    "population": 0
  },
  {
    "name": "Rogersville",
    "lat": 34.82578,
    "lon": -87.29676,
    "population": 0
  },
  {
    "name": "Russellville",
    "lat": 34.50787,
    "lon": -87.72864,
    "population": 0
  },
  {
    "name": "Saks",
    "lat": 33.69871,
    "lon": -85.83969,
    "population": 0
  },
  {
    "name": "Samson",
    "lat": 31.11295,
    "lon": -86.04605,
    "population": 0
  },
  {
    "name": "Saraland",
    "lat": 30.82074,
    "lon": -88.07056,
    "population": 0
  },
  {
    "name": "Sardis City",
    "lat": 34.17426,
    "lon": -86.12275,
    "population": 0
  },
  {
    "name": "Satsuma",
    "lat": 30.85324,
    "lon": -88.05611,
    "population": 0
  },
  {
    "name": "Scottsboro",
    "lat": 34.67231,
    "lon": -86.03415,
    "population": 0
  },
  {
    "name": "Selma",
    "lat": 32.40736,
    "lon": -87.0211,
    "population": 0
  },
  {
    "name": "Semmes",
    "lat": 30.77824,
    "lon": -88.25917,
    "population": 0
  },
  {
    "name": "Sheffield",
    "lat": 34.76509,
    "lon": -87.69864,
    "population": 0
  },
  {
    "name": "Shelby",
    "lat": 33.1104,
    "lon": -86.58415,
    "population": 0
  },
  {
    "name": "Slocomb",
    "lat": 31.10823,
    "lon": -85.59438,
    "population": 0
  },
  {
    "name": "Smiths Station",
    "lat": 32.54014,
    "lon": -85.09855,
    "population": 0
  },
  {
    "name": "Smoke Rise",
    "lat": 33.89177,
    "lon": -86.82027,
    "population": 0
  },
  {
    "name": "Southside",
    "lat": 33.92454,
    "lon": -86.02247,
    "population": 0
  },
  {
    "name": "Spanish Fort",
    "lat": 30.67491,
    "lon": -87.91527,
    "population": 0
  },
  {
    "name": "Springville",
    "lat": 33.77505,
    "lon": -86.47191,
    "population": 0
  },
  {
    "name": "Steele",
    "lat": 33.93982,
    "lon": -86.20164,
    "population": 0
  },
  {
    "name": "Stevenson",
    "lat": 34.86869,
    "lon": -85.83942,
    "population": 0
  },
  {
    "name": "Stewartville",
    "lat": 33.07929,
    "lon": -86.24442,
    "population": 0
  },
  {
    "name": "Sulligent",
    "lat": 33.90177,
    "lon": -88.13448,
    "population": 0
  },
  {
    "name": "Sumiton",
    "lat": 33.75566,
    "lon": -87.05,
    "population": 0
  },
  {
    "name": "Summerdale",
    "lat": 30.4877,
    "lon": -87.69971,
    "population": 0
  },
  {
    "name": "Sylacauga",
    "lat": 33.17317,
    "lon": -86.25164,
    "population": 0
  },
  {
    "name": "Sylvan Springs",
    "lat": 33.51566,
    "lon": -87.01499,
    "population": 0
  },
  {
    "name": "Sylvania",
    "lat": 34.56231,
    "lon": -85.81247,
    "population": 0
  },
  {
    "name": "Talladega",
    "lat": 33.43594,
    "lon": -86.1058,
    "population": 0
  },
  {
    "name": "Tallassee",
    "lat": 32.53597,
    "lon": -85.89329,
    "population": 0
  },
  {
    "name": "Tarrant",
    "lat": 33.58344,
    "lon": -86.77277,
    "population": 0
  },
  {
    "name": "Taylor",
    "lat": 31.1649,
    "lon": -85.46827,
    "population": 0
  },
  {
    "name": "Taylor",
    "lat": 31.97543,
    "lon": -86.2333,
    "population": 0
  },
  {
    "name": "Theodore",
    "lat": 30.54769,
    "lon": -88.17528,
    "population": 0
  },
  {
    "name": "Thomasville",
    "lat": 31.91349,
    "lon": -87.73584,
    "population": 0
  },
  {
    "name": "Thorsby",
    "lat": 32.91568,
    "lon": -86.71582,
    "population": 0
  },
  {
    "name": "Tillmans Corner",
    "lat": 30.59019,
    "lon": -88.17084,
    "population": 0
  },
  {
    "name": "Town Creek",
    "lat": 34.6812,
    "lon": -87.40613,
    "population": 0
  },
  {
    "name": "Trinity",
    "lat": 34.60676,
    "lon": -87.08835,
    "population": 0
  },
  {
    "name": "Troy",
    "lat": 31.80877,
    "lon": -85.96995,
    "population": 0
  },
  {
    "name": "Trussville",
    "lat": 33.61983,
    "lon": -86.60888,
    "population": 0
  },
  {
    "name": "Tuscaloosa",
    "lat": 33.20984,
    "lon": -87.56917,
    "population": 0
  },
  {
    "name": "Tuscumbia",
    "lat": 34.7312,
    "lon": -87.70253,
    "population": 0
  },
  {
    "name": "Tuskegee",
    "lat": 32.42415,
    "lon": -85.69096,
    "population": 0
  },
  {
    "name": "Union Springs",
    "lat": 32.14432,
    "lon": -85.71495,
    "population": 0
  },
  {
    "name": "Uniontown",
    "lat": 32.44958,
    "lon": -87.51417,
    "population": 0
  },
  {
    "name": "Valley",
    "lat": 32.81874,
    "lon": -85.17939,
    "population": 0
  },
  {
    "name": "Valley Grande",
    "lat": 32.50902,
    "lon": -86.98749,
    "population": 0
  },
  {
    "name": "Vandiver",
    "lat": 33.47066,
    "lon": -86.51332,
    "population": 0
  },
  {
    "name": "Vance",
    "lat": 33.17428,
    "lon": -87.23361,
    "population": 0
  },
  {
    "name": "Vernon",
    "lat": 33.75705,
    "lon": -88.10892,
    "population": 0
  },
  {
    "name": "Vestavia Hills",
    "lat": 33.44872,
    "lon": -86.78777,
    "population": 0
  },
  {
    "name": "Vincent",
    "lat": 33.38455,
    "lon": -86.41192,
    "population": 0
  },
  {
    "name": "Warrior",
    "lat": 33.81427,
    "lon": -86.80944,
    "population": 0
  },
  {
    "name": "Weaver",
    "lat": 33.75205,
    "lon": -85.81135,
    "population": 0
  },
  {
    "name": "Webb",
    "lat": 31.26045,
    "lon": -85.27327,
    "population": 0
  },
  {
    "name": "Wedowee",
    "lat": 33.309,
    "lon": -85.48467,
    "population": 0
  },
  {
    "name": "West Blocton",
    "lat": 33.11817,
    "lon": -87.125,
    "population": 0
  },
  {
    "name": "Westover",
    "lat": 33.34955,
    "lon": -86.53582,
    "population": 0
  },
  {
    "name": "Wetumpka",
    "lat": 32.54374,
    "lon": -86.21191,
    "population": 0
  },
  {
    "name": "Whitesboro",
    "lat": 34.16343,
    "lon": -86.06942,
    "population": 0
  },
  {
    "name": "Wilsonville",
    "lat": 33.23428,
    "lon": -86.48359,
    "population": 0
  },
  {
    "name": "Winfield",
    "lat": 33.92899,
    "lon": -87.81725,
    "population": 0
  },
  {
    "name": "Woodstock",
    "lat": 33.20678,
    "lon": -87.15,
    "population": 0
  },
  {
    "name": "York",
    "lat": 32.48625,
    "lon": -88.29642,
    "population": 0
  },
  {
    "name": "Alexander",
    "lat": 34.62954,
    "lon": -92.44127,
    "population": 0
  },
  {
    "name": "Alma",
    "lat": 35.47787,
    "lon": -94.22188,
    "population": 0
  },
  {
    "name": "Arkadelphia",
    "lat": 34.12093,
    "lon": -93.05378,
    "population": 0
  },
  {
    "name": "Arkansas City",
    "lat": 33.60872,
    "lon": -91.20678,
    "population": 0
  },
  {
    "name": "Ash Flat",
    "lat": 36.22396,
    "lon": -91.60848,
    "population": 0
  },
  {
    "name": "Ashdown",
    "lat": 33.67429,
    "lon": -94.13131,
    "population": 0
  },
  {
    "name": "Atkins",
    "lat": 35.24647,
    "lon": -92.93656,
    "population": 0
  },
  {
    "name": "Augusta",
    "lat": 35.28231,
    "lon": -91.36541,
    "population": 0
  },
  {
    "name": "Austin",
    "lat": 34.99842,
    "lon": -91.98376,
    "population": 0
  },
  {
    "name": "Bald Knob",
    "lat": 35.30981,
    "lon": -91.56791,
    "population": 0
  },
  {
    "name": "Barling",
    "lat": 35.32565,
    "lon": -94.3016,
    "population": 0
  },
  {
    "name": "Batesville",
    "lat": 35.7698,
    "lon": -91.64097,
    "population": 0
  },
  {
    "name": "Bay",
    "lat": 35.7423,
    "lon": -90.56233,
    "population": 0
  },
  {
    "name": "Beebe",
    "lat": 35.07064,
    "lon": -91.87959,
    "population": 0
  },
  {
    "name": "Bella Vista",
    "lat": 36.4807,
    "lon": -94.27134,
    "population": 0
  },
  {
    "name": "Benton",
    "lat": 34.56454,
    "lon": -92.58683,
    "population": 0
  },
  {
    "name": "Bentonville",
    "lat": 36.37285,
    "lon": -94.20882,
    "population": 0
  },
  {
    "name": "Berryville",
    "lat": 36.36479,
    "lon": -93.56797,
    "population": 0
  },
  {
    "name": "Bethel Heights",
    "lat": 36.21424,
    "lon": -94.12937,
    "population": 0
  },
  {
    "name": "Blytheville",
    "lat": 35.9273,
    "lon": -89.91898,
    "population": 0
  },
  {
    "name": "Bono",
    "lat": 35.90868,
    "lon": -90.80262,
    "population": 0
  },
  {
    "name": "Booneville",
    "lat": 35.14009,
    "lon": -93.92159,
    "population": 0
  },
  {
    "name": "Brinkley",
    "lat": 34.88787,
    "lon": -91.19457,
    "population": 0
  },
  {
    "name": "Brookland",
    "lat": 35.90007,
    "lon": -90.58205,
    "population": 0
  },
  {
    "name": "Bryant",
    "lat": 34.59593,
    "lon": -92.48905,
    "population": 0
  },
  {
    "name": "Bull Shoals",
    "lat": 36.38396,
    "lon": -92.58155,
    "population": 0
  },
  {
    "name": "Cabot",
    "lat": 34.97453,
    "lon": -92.01653,
    "population": 0
  },
  {
    "name": "Calico Rock",
    "lat": 36.11951,
    "lon": -92.13599,
    "population": 0
  },
  {
    "name": "Camden",
    "lat": 33.58456,
    "lon": -92.83433,
    "population": 0
  },
  {
    "name": "Caraway",
    "lat": 35.75813,
    "lon": -90.32232,
    "population": 0
  },
  {
    "name": "Carlisle",
    "lat": 34.78315,
    "lon": -91.74652,
    "population": 0
  },
  {
    "name": "Cave City",
    "lat": 35.94174,
    "lon": -91.54847,
    "population": 0
  },
  {
    "name": "Cave Springs",
    "lat": 36.26341,
    "lon": -94.23187,
    "population": 0
  },
  {
    "name": "Cedarville",
    "lat": 35.56981,
    "lon": -94.36688,
    "population": 0
  },
  {
    "name": "Centerton",
    "lat": 36.3598,
    "lon": -94.28521,
    "population": 0
  },
  {
    "name": "Charleston",
    "lat": 35.29704,
    "lon": -94.03632,
    "population": 0
  },
  {
    "name": "Cherokee Village",
    "lat": 36.29784,
    "lon": -91.51597,
    "population": 0
  },
  {
    "name": "Clarendon",
    "lat": 34.69315,
    "lon": -91.31374,
    "population": 0
  },
  {
    "name": "Clarksville",
    "lat": 35.47147,
    "lon": -93.46657,
    "population": 0
  },
  {
    "name": "Clinton",
    "lat": 35.59147,
    "lon": -92.46044,
    "population": 0
  },
  {
    "name": "Coal Hill",
    "lat": 35.43731,
    "lon": -93.67297,
    "population": 0
  },
  {
    "name": "Conway",
    "lat": 35.0887,
    "lon": -92.4421,
    "population": 0
  },
  {
    "name": "Corning",
    "lat": 36.40784,
    "lon": -90.57983,
    "population": 0
  },
  {
    "name": "Crossett",
    "lat": 33.12818,
    "lon": -91.96124,
    "population": 0
  },
  {
    "name": "Danville",
    "lat": 35.05398,
    "lon": -93.39352,
    "population": 0
  },
  {
    "name": "Dardanelle",
    "lat": 35.22314,
    "lon": -93.15795,
    "population": 0
  },
  {
    "name": "De Queen",
    "lat": 34.03789,
    "lon": -94.34132,
    "population": 0
  },
  {
    "name": "De Witt",
    "lat": 34.29288,
    "lon": -91.3379,
    "population": 0
  },
  {
    "name": "Decatur",
    "lat": 36.33591,
    "lon": -94.46077,
    "population": 0
  },
  {
    "name": "Dermott",
    "lat": 33.52539,
    "lon": -91.43595,
    "population": 0
  },
  {
    "name": "Des Arc",
    "lat": 34.97704,
    "lon": -91.49513,
    "population": 0
  },
  {
    "name": "Diaz",
    "lat": 35.63841,
    "lon": -91.26513,
    "population": 0
  },
  {
    "name": "Dierks",
    "lat": 34.11928,
    "lon": -94.01658,
    "population": 0
  },
  {
    "name": "Dover",
    "lat": 35.40147,
    "lon": -93.11434,
    "population": 0
  },
  {
    "name": "Dumas",
    "lat": 33.88705,
    "lon": -91.49179,
    "population": 0
  },
  {
    "name": "Earle",
    "lat": 35.27509,
    "lon": -90.46677,
    "population": 0
  },
  {
    "name": "East End",
    "lat": 34.55065,
    "lon": -92.34099,
    "population": 0
  },
  {
    "name": "El Dorado",
    "lat": 33.20763,
    "lon": -92.66627,
    "population": 0
  },
  {
    "name": "Elkins",
    "lat": 36.00147,
    "lon": -94.00825,
    "population": 0
  },
  {
    "name": "Elm Springs",
    "lat": 36.20619,
    "lon": -94.23437,
    "population": 0
  },
  {
    "name": "England",
    "lat": 34.54426,
    "lon": -91.96903,
    "population": 0
  },
  {
    "name": "Eudora",
    "lat": 33.10957,
    "lon": -91.26206,
    "population": 0
  },
  {
    "name": "Eureka Springs",
    "lat": 36.40118,
    "lon": -93.73797,
    "population": 0
  },
  {
    "name": "Fairfield Bay",
    "lat": 35.59424,
    "lon": -92.27793,
    "population": 0
  },
  {
    "name": "Farmington",
    "lat": 36.04202,
    "lon": -94.24715,
    "population": 0
  },
  {
    "name": "Fayetteville",
    "lat": 36.06258,
    "lon": -94.15743,
    "population": 0
  },
  {
    "name": "Flippin",
    "lat": 36.27896,
    "lon": -92.59711,
    "population": 0
  },
  {
    "name": "Fordyce",
    "lat": 33.81372,
    "lon": -92.41293,
    "population": 0
  },
  {
    "name": "Forrest City",
    "lat": 35.00815,
    "lon": -90.78983,
    "population": 0
  },
  {
    "name": "Fort Smith",
    "lat": 35.38592,
    "lon": -94.39855,
    "population": 0
  },
  {
    "name": "Gassville",
    "lat": 36.28312,
    "lon": -92.49405,
    "population": 0
  },
  {
    "name": "Gentry",
    "lat": 36.26758,
    "lon": -94.48466,
    "population": 0
  },
  {
    "name": "Gibson",
    "lat": 34.88426,
    "lon": -92.2357,
    "population": 0
  },
  {
    "name": "Glenwood",
    "lat": 34.32677,
    "lon": -93.55074,
    "population": 0
  },
  {
    "name": "Gosnell",
    "lat": 35.95979,
    "lon": -89.97203,
    "population": 0
  },
  {
    "name": "Goshen",
    "lat": 36.10119,
    "lon": -93.99131,
    "population": 0
  },
  {
    "name": "Gravel Ridge",
    "lat": 34.86842,
    "lon": -92.1907,
    "population": 0
  },
  {
    "name": "Gravette",
    "lat": 36.42202,
    "lon": -94.45355,
    "population": 0
  },
  {
    "name": "Green Forest",
    "lat": 36.33535,
    "lon": -93.43602,
    "population": 0
  },
  {
    "name": "Greenbrier",
    "lat": 35.23397,
    "lon": -92.38765,
    "population": 0
  },
  {
    "name": "Greenland",
    "lat": 35.99425,
    "lon": -94.1752,
    "population": 0
  },
  {
    "name": "Greenwood",
    "lat": 35.21565,
    "lon": -94.25577,
    "population": 0
  },
  {
    "name": "Gurdon",
    "lat": 33.92094,
    "lon": -93.15406,
    "population": 0
  },
  {
    "name": "Hamburg",
    "lat": 33.22818,
    "lon": -91.79763,
    "population": 0
  },
  {
    "name": "Hampton",
    "lat": 33.53789,
    "lon": -92.46988,
    "population": 0
  },
  {
    "name": "Harrisburg",
    "lat": 35.56425,
    "lon": -90.71678,
    "population": 0
  },
  {
    "name": "Harrison",
    "lat": 36.22979,
    "lon": -93.10768,
    "population": 0
  },
  {
    "name": "Haskell",
    "lat": 34.50148,
    "lon": -92.63655,
    "population": 0
  },
  {
    "name": "Hazen",
    "lat": 34.78093,
    "lon": -91.58097,
    "population": 0
  },
  {
    "name": "Heber Springs",
    "lat": 35.49147,
    "lon": -92.03126,
    "population": 0
  },
  {
    "name": "Helena",
    "lat": 34.52955,
    "lon": -90.59177,
    "population": 0
  },
  {
    "name": "Highland",
    "lat": 36.2759,
    "lon": -91.52403,
    "population": 0
  },
  {
    "name": "Holiday Island",
    "lat": 36.48535,
    "lon": -93.73214,
    "population": 0
  },
  {
    "name": "Hope",
    "lat": 33.66706,
    "lon": -93.59157,
    "population": 0
  },
  {
    "name": "Horatio",
    "lat": 33.93845,
    "lon": -94.35715,
    "population": 0
  },
  {
    "name": "Horseshoe Bend",
    "lat": 36.22923,
    "lon": -91.76431,
    "population": 0
  },
  {
    "name": "Hot Springs",
    "lat": 34.5037,
    "lon": -93.05518,
    "population": 0
  },
  {
    "name": "Hot Springs Village",
    "lat": 34.67204,
    "lon": -92.99879,
    "population": 0
  },
  {
    "name": "Hoxie",
    "lat": 36.05035,
    "lon": -90.97512,
    "population": 0
  },
  {
    "name": "Hughes",
    "lat": 34.94926,
    "lon": -90.47149,
    "population": 0
  },
  {
    "name": "Huntsville",
    "lat": 36.08619,
    "lon": -93.7413,
    "population": 0
  },
  {
    "name": "Jacksonville",
    "lat": 34.8662,
    "lon": -92.11015,
    "population": 0
  },
  {
    "name": "Jasper",
    "lat": 36.00813,
    "lon": -93.18657,
    "population": 0
  },
  {
    "name": "Johnson",
    "lat": 36.13286,
    "lon": -94.16548,
    "population": 0
  },
  {
    "name": "Jonesboro",
    "lat": 35.8423,
    "lon": -90.70428,
    "population": 0
  },
  {
    "name": "Judsonia",
    "lat": 35.27009,
    "lon": -91.63986,
    "population": 0
  },
  {
    "name": "Kensett",
    "lat": 35.23175,
    "lon": -91.66764,
    "population": 0
  },
  {
    "name": "Lake City",
    "lat": 35.81619,
    "lon": -90.43427,
    "population": 0
  },
  {
    "name": "Lake Hamilton",
    "lat": 34.42453,
    "lon": -93.09518,
    "population": 0
  },
  {
    "name": "Lake Village",
    "lat": 33.32873,
    "lon": -91.28178,
    "population": 0
  },
  {
    "name": "Lamar",
    "lat": 35.44064,
    "lon": -93.38796,
    "population": 0
  },
  {
    "name": "Landmark",
    "lat": 34.6112,
    "lon": -92.3196,
    "population": 0
  },
  {
    "name": "Lavaca",
    "lat": 35.3362,
    "lon": -94.17326,
    "population": 0
  },
  {
    "name": "Leachville",
    "lat": 35.93591,
    "lon": -90.25788,
    "population": 0
  },
  {
    "name": "Lepanto",
    "lat": 35.61119,
    "lon": -90.32982,
    "population": 0
  },
  {
    "name": "Lewisville",
    "lat": 33.35846,
    "lon": -93.57768,
    "population": 0
  },
  {
    "name": "Lincoln",
    "lat": 35.94953,
    "lon": -94.42355,
    "population": 0
  },
  {
    "name": "Little Flock",
    "lat": 36.38591,
    "lon": -94.1352,
    "population": 0
  },
  {
    "name": "Little Rock",
    "lat": 34.74648,
    "lon": -92.28959,
    "population": 0
  },
  {
    "name": "London",
    "lat": 35.32897,
    "lon": -93.25296,
    "population": 0
  },
  {
    "name": "Lonoke",
    "lat": 34.78398,
    "lon": -91.89986,
    "population": 0
  },
  {
    "name": "Lowell",
    "lat": 36.25535,
    "lon": -94.13076,
    "population": 0
  },
  {
    "name": "Luxora",
    "lat": 35.75619,
    "lon": -89.92814,
    "population": 0
  },
  {
    "name": "Magnolia",
    "lat": 33.26707,
    "lon": -93.23933,
    "population": 0
  },
  {
    "name": "Malvern",
    "lat": 34.36231,
    "lon": -92.81295,
    "population": 0
  },
  {
    "name": "Manila",
    "lat": 35.88007,
    "lon": -90.16704,
    "population": 0
  },
  {
    "name": "Mansfield",
    "lat": 35.05954,
    "lon": -94.25271,
    "population": 0
  },
  {
    "name": "Marianna",
    "lat": 34.77371,
    "lon": -90.75761,
    "population": 0
  },
  {
    "name": "Marion",
    "lat": 35.21453,
    "lon": -90.19648,
    "population": 0
  },
  {
    "name": "Marked Tree",
    "lat": 35.53286,
    "lon": -90.42066,
    "population": 0
  },
  {
    "name": "Marmaduke",
    "lat": 36.18701,
    "lon": -90.38316,
    "population": 0
  },
  {
    "name": "Marshall",
    "lat": 35.90896,
    "lon": -92.63127,
    "population": 0
  },
  {
    "name": "Marvell",
    "lat": 34.55566,
    "lon": -90.91289,
    "population": 0
  },
  {
    "name": "Maumelle",
    "lat": 34.86676,
    "lon": -92.40432,
    "population": 0
  },
  {
    "name": "Mayflower",
    "lat": 34.95703,
    "lon": -92.42738,
    "population": 0
  },
  {
    "name": "McAlmont",
    "lat": 34.80842,
    "lon": -92.18181,
    "population": 0
  },
  {
    "name": "McCrory",
    "lat": 35.2562,
    "lon": -91.20012,
    "population": 0
  },
  {
    "name": "McGehee",
    "lat": 33.629,
    "lon": -91.39956,
    "population": 0
  },
  {
    "name": "Melbourne",
    "lat": 36.05951,
    "lon": -91.90848,
    "population": 0
  },
  {
    "name": "Mena",
    "lat": 34.58622,
    "lon": -94.23966,
    "population": 0
  },
  {
    "name": "Midway",
    "lat": 36.38534,
    "lon": -92.46183,
    "population": 0
  },
  {
    "name": "Mineral Springs",
    "lat": 33.87512,
    "lon": -93.9138,
    "population": 0
  },
  {
    "name": "Monette",
    "lat": 35.89063,
    "lon": -90.34427,
    "population": 0
  },
  {
    "name": "Monticello",
    "lat": 33.629,
    "lon": -91.79096,
    "population": 0
  },
  {
    "name": "Morrilton",
    "lat": 35.15092,
    "lon": -92.74405,
    "population": 0
  },
  {
    "name": "Mount Ida",
    "lat": 34.55676,
    "lon": -93.63408,
    "population": 0
  },
  {
    "name": "Mountain View",
    "lat": 35.86841,
    "lon": -92.11765,
    "population": 0
  },
  {
    "name": "Mountain Home",
    "lat": 36.33534,
    "lon": -92.38516,
    "population": 0
  },
  {
    "name": "Mulberry",
    "lat": 35.50064,
    "lon": -94.05159,
    "population": 0
  },
  {
    "name": "Murfreesboro",
    "lat": 34.06233,
    "lon": -93.6899,
    "population": 0
  },
  {
    "name": "Nashville",
    "lat": 33.94567,
    "lon": -93.84713,
    "population": 0
  },
  {
    "name": "Newark",
    "lat": 35.70174,
    "lon": -91.44152,
    "population": 0
  },
  {
    "name": "Newport",
    "lat": 35.6048,
    "lon": -91.2818,
    "population": 0
  },
  {
    "name": "North Crossett",
    "lat": 33.16568,
    "lon": -91.94152,
    "population": 0
  },
  {
    "name": "North Little Rock",
    "lat": 34.76954,
    "lon": -92.26709,
    "population": 0
  },
  {
    "name": "Ola",
    "lat": 35.03231,
    "lon": -93.22323,
    "population": 0
  },
  {
    "name": "Osceola",
    "lat": 35.70508,
    "lon": -89.96953,
    "population": 0
  },
  {
    "name": "Ozark",
    "lat": 35.48703,
    "lon": -93.8277,
    "population": 0
  },
  {
    "name": "Paragould",
    "lat": 36.0584,
    "lon": -90.49733,
    "population": 0
  },
  {
    "name": "Paris",
    "lat": 35.29203,
    "lon": -93.72992,
    "population": 0
  },
  {
    "name": "Parkin",
    "lat": 35.26342,
    "lon": -90.57122,
    "population": 0
  },
  {
    "name": "Pea Ridge",
    "lat": 33.92066,
    "lon": -91.33679,
    "population": 0
  },
  {
    "name": "Pea Ridge",
    "lat": 36.45396,
    "lon": -94.1152,
    "population": 0
  },
  {
    "name": "Perryville",
    "lat": 35.00481,
    "lon": -92.80267,
    "population": 0
  },
  {
    "name": "Piggott",
    "lat": 36.38284,
    "lon": -90.19065,
    "population": 0
  },
  {
    "name": "Pine Bluff",
    "lat": 34.22843,
    "lon": -92.0032,
    "population": 0
  },
  {
    "name": "Piney",
    "lat": 34.50314,
    "lon": -93.12602,
    "population": 0
  },
  {
    "name": "Pocahontas",
    "lat": 36.26146,
    "lon": -90.97123,
    "population": 0
  },
  {
    "name": "Pottsville",
    "lat": 35.24814,
    "lon": -93.04906,
    "population": 0
  },
  {
    "name": "Prairie Creek",
    "lat": 36.34202,
    "lon": -94.06187,
    "population": 0
  },
  {
    "name": "Prairie Grove",
    "lat": 35.97591,
    "lon": -94.31771,
    "population": 0
  },
  {
    "name": "Prescott",
    "lat": 33.80261,
    "lon": -93.38101,
    "population": 0
  },
  {
    "name": "Rector",
    "lat": 36.26312,
    "lon": -90.2926,
    "population": 0
  },
  {
    "name": "Redfield",
    "lat": 34.4451,
    "lon": -92.1832,
    "population": 0
  },
  {
    "name": "Rison",
    "lat": 33.95843,
    "lon": -92.19015,
    "population": 0
  },
  {
    "name": "Rockwell",
    "lat": 34.46426,
    "lon": -93.13379,
    "population": 0
  },
  {
    "name": "Rogers",
    "lat": 36.33202,
    "lon": -94.11854,
    "population": 0
  },
  {
    "name": "Russellville",
    "lat": 35.27842,
    "lon": -93.13379,
    "population": 0
  },
  {
    "name": "Salem",
    "lat": 36.37118,
    "lon": -91.82265,
    "population": 0
  },
  {
    "name": "Salem",
    "lat": 34.62898,
    "lon": -92.55822,
    "population": 0
  },
  {
    "name": "Searcy",
    "lat": 35.25064,
    "lon": -91.73625,
    "population": 0
  },
  {
    "name": "Shannon Hills",
    "lat": 34.62009,
    "lon": -92.39543,
    "population": 0
  },
  {
    "name": "Sheridan",
    "lat": 34.30704,
    "lon": -92.40127,
    "population": 0
  },
  {
    "name": "Siloam Springs",
    "lat": 36.18814,
    "lon": -94.5405,
    "population": 0
  },
  {
    "name": "Smackover",
    "lat": 33.36485,
    "lon": -92.72488,
    "population": 0
  },
  {
    "name": "Southside",
    "lat": 35.69841,
    "lon": -91.62347,
    "population": 0
  },
  {
    "name": "Springdale",
    "lat": 36.18674,
    "lon": -94.12881,
    "population": 0
  },
  {
    "name": "Stamps",
    "lat": 33.3654,
    "lon": -93.49518,
    "population": 0
  },
  {
    "name": "Star City",
    "lat": 33.94288,
    "lon": -91.84347,
    "population": 0
  },
  {
    "name": "Stuttgart",
    "lat": 34.50037,
    "lon": -91.55263,
    "population": 0
  },
  {
    "name": "Sulphur Springs",
    "lat": 34.18065,
    "lon": -92.12348,
    "population": 0
  },
  {
    "name": "Texarkana",
    "lat": 33.44179,
    "lon": -94.03769,
    "population": 0
  },
  {
    "name": "Tontitown",
    "lat": 36.17786,
    "lon": -94.23354,
    "population": 0
  },
  {
    "name": "Trumann",
    "lat": 35.67369,
    "lon": -90.50733,
    "population": 0
  },
  {
    "name": "Tuckerman",
    "lat": 35.73063,
    "lon": -91.19846,
    "population": 0
  },
  {
    "name": "Van Buren",
    "lat": 35.43676,
    "lon": -94.34827,
    "population": 0
  },
  {
    "name": "Vilonia",
    "lat": 35.08398,
    "lon": -92.20793,
    "population": 0
  },
  {
    "name": "Waldo",
    "lat": 33.35151,
    "lon": -93.29573,
    "population": 0
  },
  {
    "name": "Waldron",
    "lat": 34.89843,
    "lon": -94.09076,
    "population": 0
  },
  {
    "name": "Walnut Ridge",
    "lat": 36.0684,
    "lon": -90.95595,
    "population": 0
  },
  {
    "name": "Ward",
    "lat": 35.03036,
    "lon": -91.95042,
    "population": 0
  },
  {
    "name": "Warren",
    "lat": 33.61261,
    "lon": -92.06458,
    "population": 0
  },
  {
    "name": "West Crossett",
    "lat": 33.14096,
    "lon": -91.99402,
    "population": 0
  },
  {
    "name": "West Fork",
    "lat": 35.92425,
    "lon": -94.18854,
    "population": 0
  },
  {
    "name": "West Helena",
    "lat": 34.55066,
    "lon": -90.64177,
    "population": 0
  },
  {
    "name": "West Memphis",
    "lat": 35.14648,
    "lon": -90.18454,
    "population": 0
  },
  {
    "name": "White Hall",
    "lat": 34.27399,
    "lon": -92.09098,
    "population": 0
  },
  {
    "name": "Wrightsville",
    "lat": 34.60232,
    "lon": -92.21681,
    "population": 0
  },
  {
    "name": "Wynne",
    "lat": 35.22453,
    "lon": -90.78678,
    "population": 0
  },
  {
    "name": "Yellville",
    "lat": 36.22618,
    "lon": -92.68489,
    "population": 0
  },
  {
    "name": "Adams Morgan",
    "lat": 38.9215,
    "lon": -77.0422,
    "population": 0
  },
  {
    "name": "Bloomingdale",
    "lat": 38.91678,
    "lon": -77.01137,
    "population": 0
  },
  {
    "name": "Chevy Chase",
    "lat": 38.964,
    "lon": -77.06776,
    "population": 0
  },
  {
    "name": "Shaw",
    "lat": 38.91206,
    "lon": -77.02137,
    "population": 0
  },
  {
    "name": "Washington, D.C.",
    "lat": 38.89511,
    "lon": -77.03637,
    "population": 0
  },
  {
    "name": "Bear",
    "lat": 39.62928,
    "lon": -75.65826,
    "population": 0
  },
  {
    "name": "Bellefonte",
    "lat": 39.76622,
    "lon": -75.50936,
    "population": 0
  },
  {
    "name": "Bethany Beach",
    "lat": 38.53956,
    "lon": -75.05518,
    "population": 0
  },
  {
    "name": "Blades",
    "lat": 38.63567,
    "lon": -75.60993,
    "population": 0
  },
  {
    "name": "Bridgeville",
    "lat": 38.74261,
    "lon": -75.60437,
    "population": 0
  },
  {
    "name": "Brookside",
    "lat": 39.66706,
    "lon": -75.72688,
    "population": 0
  },
  {
    "name": "Camden",
    "lat": 39.11345,
    "lon": -75.54187,
    "population": 0
  },
  {
    "name": "Cheswold",
    "lat": 39.21928,
    "lon": -75.58576,
    "population": 0
  },
  {
    "name": "Claymont",
    "lat": 39.80067,
    "lon": -75.45964,
    "population": 0
  },
  {
    "name": "Clayton",
    "lat": 39.29067,
    "lon": -75.63437,
    "population": 0
  },
  {
    "name": "Delaware City",
    "lat": 39.57789,
    "lon": -75.58881,
    "population": 0
  },
  {
    "name": "Delmar",
    "lat": 38.45651,
    "lon": -75.57715,
    "population": 0
  },
  {
    "name": "Dover",
    "lat": 39.15817,
    "lon": -75.52437,
    "population": 0
  },
  {
    "name": "Edgemoor",
    "lat": 39.75011,
    "lon": -75.49964,
    "population": 0
  },
  {
    "name": "Elsmere",
    "lat": 39.73928,
    "lon": -75.59798,
    "population": 0
  },
  {
    "name": "Felton",
    "lat": 39.00845,
    "lon": -75.57798,
    "population": 0
  },
  {
    "name": "Georgetown",
    "lat": 38.69011,
    "lon": -75.38547,
    "population": 0
  },
  {
    "name": "Glasgow",
    "lat": 39.60483,
    "lon": -75.74521,
    "population": 0
  },
  {
    "name": "Greenville",
    "lat": 39.779,
    "lon": -75.59826,
    "population": 0
  },
  {
    "name": "Greenwood",
    "lat": 38.80706,
    "lon": -75.59132,
    "population": 0
  },
  {
    "name": "Harrington",
    "lat": 38.92372,
    "lon": -75.5777,
    "population": 0
  },
  {
    "name": "Highland Acres",
    "lat": 39.12095,
    "lon": -75.52187,
    "population": 0
  },
  {
    "name": "Hockessin",
    "lat": 39.78761,
    "lon": -75.6966,
    "population": 0
  },
  {
    "name": "Kent Acres",
    "lat": 39.13178,
    "lon": -75.52492,
    "population": 0
  },
  {
    "name": "Laurel",
    "lat": 38.5565,
    "lon": -75.57131,
    "population": 0
  },
  {
    "name": "Lewes",
    "lat": 38.77456,
    "lon": -75.13935,
    "population": 0
  },
  {
    "name": "Long Neck",
    "lat": 38.62011,
    "lon": -75.15074,
    "population": 0
  },
  {
    "name": "Middletown",
    "lat": 39.44956,
    "lon": -75.71632,
    "population": 0
  },
  {
    "name": "Milford",
    "lat": 38.91261,
    "lon": -75.42797,
    "population": 0
  },
  {
    "name": "Millsboro",
    "lat": 38.5915,
    "lon": -75.2913,
    "population": 0
  },
  {
    "name": "Milton",
    "lat": 38.77761,
    "lon": -75.30991,
    "population": 0
  },
  {
    "name": "New Castle",
    "lat": 39.66206,
    "lon": -75.56631,
    "population": 0
  },
  {
    "name": "Newark",
    "lat": 39.68372,
    "lon": -75.74966,
    "population": 0
  },
  {
    "name": "Newport",
    "lat": 39.71372,
    "lon": -75.60937,
    "population": 0
  },
  {
    "name": "North Star",
    "lat": 39.76122,
    "lon": -75.7191,
    "population": 0
  },
  {
    "name": "Pike Creek",
    "lat": 39.73095,
    "lon": -75.7041,
    "population": 0
  },
  {
    "name": "Pike Creek Valley",
    "lat": 39.73622,
    "lon": -75.69827,
    "population": 0
  },
  {
    "name": "Rehoboth Beach",
    "lat": 38.72095,
    "lon": -75.07601,
    "population": 0
  },
  {
    "name": "Riverview",
    "lat": 39.0265,
    "lon": -75.51076,
    "population": 0
  },
  {
    "name": "Rodney Village",
    "lat": 39.13206,
    "lon": -75.53242,
    "population": 0
  },
  {
    "name": "Seaford",
    "lat": 38.64123,
    "lon": -75.61104,
    "population": 0
  },
  {
    "name": "Selbyville",
    "lat": 38.46039,
    "lon": -75.22074,
    "population": 0
  },
  {
    "name": "Smyrna",
    "lat": 39.29983,
    "lon": -75.60465,
    "population": 0
  },
  {
    "name": "Townsend",
    "lat": 39.39511,
    "lon": -75.6916,
    "population": 0
  },
  {
    "name": "Wilmington",
    "lat": 39.74595,
    "lon": -75.54659,
    "population": 0
  },
  {
    "name": "Wilmington Manor",
    "lat": 39.68678,
    "lon": -75.58437,
    "population": 0
  },
  {
    "name": "Wyoming",
    "lat": 39.11817,
    "lon": -75.55881,
    "population": 0
  },
  {
    "name": "Aberdeen",
    "lat": 26.55063,
    "lon": -80.14866,
    "population": 0
  },
  {
    "name": "Alachua",
    "lat": 29.75163,
    "lon": -82.42483,
    "population": 0
  },
  {
    "name": "Allapattah",
    "lat": 25.81454,
    "lon": -80.22394,
    "population": 0
  },
  {
    "name": "Altamonte Springs",
    "lat": 28.66111,
    "lon": -81.36562,
    "population": 0
  },
  {
    "name": "Alturas",
    "lat": 27.87169,
    "lon": -81.71508,
    "population": 0
  },
  {
    "name": "Alva",
    "lat": 26.71562,
    "lon": -81.61008,
    "population": 0
  },
  {
    "name": "Andover",
    "lat": 25.96843,
    "lon": -80.21283,
    "population": 0
  },
  {
    "name": "Anna Maria",
    "lat": 27.53115,
    "lon": -82.73343,
    "population": 0
  },
  {
    "name": "Apalachicola",
    "lat": 29.726,
    "lon": -84.9856,
    "population": 0
  },
  {
    "name": "Apollo Beach",
    "lat": 27.77308,
    "lon": -82.40759,
    "population": 0
  },
  {
    "name": "Apopka",
    "lat": 28.67617,
    "lon": -81.51186,
    "population": 0
  },
  {
    "name": "Arcadia",
    "lat": 27.21588,
    "lon": -81.85842,
    "population": 0
  },
  {
    "name": "Archer",
    "lat": 29.52997,
    "lon": -82.519,
    "population": 0
  },
  {
    "name": "Asbury Lake",
    "lat": 30.04913,
    "lon": -81.82149,
    "population": 0
  },
  {
    "name": "Astatula",
    "lat": 28.70972,
    "lon": -81.73285,
    "population": 0
  },
  {
    "name": "Astor",
    "lat": 29.16248,
    "lon": -81.52535,
    "population": 0
  },
  {
    "name": "Atlantic Beach",
    "lat": 30.33441,
    "lon": -81.3987,
    "population": 0
  },
  {
    "name": "Atlantis",
    "lat": 26.5909,
    "lon": -80.10088,
    "population": 0
  },
  {
    "name": "Auburndale",
    "lat": 28.0653,
    "lon": -81.78869,
    "population": 0
  },
  {
    "name": "Aventura",
    "lat": 25.95648,
    "lon": -80.13921,
    "population": 0
  },
  {
    "name": "Avon Park",
    "lat": 27.59587,
    "lon": -81.50619,
    "population": 0
  },
  {
    "name": "Azalea Park",
    "lat": 28.54111,
    "lon": -81.30062,
    "population": 0
  },
  {
    "name": "Babson Park",
    "lat": 27.83197,
    "lon": -81.5223,
    "population": 0
  },
  {
    "name": "Bagdad",
    "lat": 30.5988,
    "lon": -87.03223,
    "population": 0
  },
  {
    "name": "Bal Harbour",
    "lat": 25.89176,
    "lon": -80.12699,
    "population": 0
  },
  {
    "name": "Baldwin",
    "lat": 30.30274,
    "lon": -81.97539,
    "population": 0
  },
  {
    "name": "Balm",
    "lat": 27.75947,
    "lon": -82.2612,
    "population": 0
  },
  {
    "name": "Bartow",
    "lat": 27.89641,
    "lon": -81.84314,
    "population": 0
  },
  {
    "name": "Bay Harbor Islands",
    "lat": 25.88759,
    "lon": -80.13116,
    "population": 0
  },
  {
    "name": "Bay Hill",
    "lat": 28.46806,
    "lon": -81.51618,
    "population": 0
  },
  {
    "name": "Bay Pines",
    "lat": 27.81419,
    "lon": -82.77816,
    "population": 0
  },
  {
    "name": "Bayonet Point",
    "lat": 28.32667,
    "lon": -82.68343,
    "population": 0
  },
  {
    "name": "Bayshore Gardens",
    "lat": 27.42532,
    "lon": -82.59038,
    "population": 0
  },
  {
    "name": "Beacon Square",
    "lat": 28.20862,
    "lon": -82.75538,
    "population": 0
  },
  {
    "name": "Bee Ridge",
    "lat": 27.28394,
    "lon": -82.48065,
    "population": 0
  },
  {
    "name": "Belle Glade",
    "lat": 26.68451,
    "lon": -80.66756,
    "population": 0
  },
  {
    "name": "Belle Glade Camp",
    "lat": 26.65757,
    "lon": -80.68284,
    "population": 0
  },
  {
    "name": "Belle Isle",
    "lat": 28.45834,
    "lon": -81.35924,
    "population": 0
  },
  {
    "name": "Belleair",
    "lat": 27.93585,
    "lon": -82.80621,
    "population": 0
  },
  {
    "name": "Belleair Beach",
    "lat": 27.92308,
    "lon": -82.84316,
    "population": 0
  },
  {
    "name": "Belleair Bluffs",
    "lat": 27.92141,
    "lon": -82.81705,
    "population": 0
  },
  {
    "name": "Belleview",
    "lat": 29.05526,
    "lon": -82.06231,
    "population": 0
  },
  {
    "name": "Bellview",
    "lat": 30.46159,
    "lon": -87.31497,
    "population": 0
  },
  {
    "name": "Beverly Hills",
    "lat": 28.91692,
    "lon": -82.45815,
    "population": 0
  },
  {
    "name": "Big Coppitt Key",
    "lat": 24.59653,
    "lon": -81.66009,
    "population": 0
  },
  {
    "name": "Big Pine Key",
    "lat": 24.66987,
    "lon": -81.35397,
    "population": 0
  },
  {
    "name": "Biscayne Park",
    "lat": 25.8826,
    "lon": -80.1806,
    "population": 0
  },
  {
    "name": "Bithlo",
    "lat": 28.55472,
    "lon": -81.10645,
    "population": 0
  },
  {
    "name": "Black Diamond",
    "lat": 28.91248,
    "lon": -82.48593,
    "population": 0
  },
  {
    "name": "Bloomingdale",
    "lat": 27.89364,
    "lon": -82.24037,
    "population": 0
  },
  {
    "name": "Blountstown",
    "lat": 30.44379,
    "lon": -85.04744,
    "population": 0
  },
  {
    "name": "Boca Del Mar",
    "lat": 26.34508,
    "lon": -80.14671,
    "population": 0
  },
  {
    "name": "Boca Pointe",
    "lat": 26.33313,
    "lon": -80.15949,
    "population": 0
  },
  {
    "name": "Boca Raton",
    "lat": 26.35869,
    "lon": -80.0831,
    "population": 0
  },
  {
    "name": "Bokeelia",
    "lat": 26.70563,
    "lon": -82.15898,
    "population": 0
  },
  {
    "name": "Bonifay",
    "lat": 30.79186,
    "lon": -85.67965,
    "population": 0
  },
  {
    "name": "Bonita Springs",
    "lat": 26.33981,
    "lon": -81.7787,
    "population": 0
  },
  {
    "name": "Bowling Green",
    "lat": 27.63837,
    "lon": -81.82397,
    "population": 0
  },
  {
    "name": "Boyette",
    "lat": 27.81753,
    "lon": -82.22259,
    "population": 0
  },
  {
    "name": "Boynton Beach",
    "lat": 26.52535,
    "lon": -80.06643,
    "population": 0
  },
  {
    "name": "Bradenton",
    "lat": 27.49893,
    "lon": -82.57482,
    "population": 0
  },
  {
    "name": "Bradenton Beach",
    "lat": 27.46698,
    "lon": -82.70399,
    "population": 0
  },
  {
    "name": "Brandon",
    "lat": 27.9378,
    "lon": -82.28592,
    "population": 0
  },
  {
    "name": "Brent",
    "lat": 30.46881,
    "lon": -87.23608,
    "population": 0
  },
  {
    "name": "Bristol",
    "lat": 30.43247,
    "lon": -84.97702,
    "population": 0
  },
  {
    "name": "Broadview Park",
    "lat": 26.09953,
    "lon": -80.20866,
    "population": 0
  },
  {
    "name": "Bronson",
    "lat": 29.44774,
    "lon": -82.64233,
    "population": 0
  },
  {
    "name": "Brookridge",
    "lat": 28.5511,
    "lon": -82.49204,
    "population": 0
  },
  {
    "name": "Brooksville",
    "lat": 28.55554,
    "lon": -82.38991,
    "population": 0
  },
  {
    "name": "Broward Estates",
    "lat": 26.12564,
    "lon": -80.19338,
    "population": 0
  },
  {
    "name": "Brownsville",
    "lat": 25.82176,
    "lon": -80.24116,
    "population": 0
  },
  {
    "name": "Buckhead Ridge",
    "lat": 27.13033,
    "lon": -80.89367,
    "population": 0
  },
  {
    "name": "Buckingham",
    "lat": 26.67507,
    "lon": -81.73203,
    "population": 0
  },
  {
    "name": "Buenaventura Lakes",
    "lat": 28.33584,
    "lon": -81.35313,
    "population": 0
  },
  {
    "name": "Bunche Park",
    "lat": 25.92065,
    "lon": -80.23699,
    "population": 0
  },
  {
    "name": "Bunnell",
    "lat": 29.46609,
    "lon": -81.25784,
    "population": 0
  },
  {
    "name": "Burnt Store Marina",
    "lat": 26.76507,
    "lon": -82.05092,
    "population": 0
  },
  {
    "name": "Bushnell",
    "lat": 28.66499,
    "lon": -82.11286,
    "population": 0
  },
  {
    "name": "Butler Beach",
    "lat": 29.7983,
    "lon": -81.26701,
    "population": 0
  },
  {
    "name": "Callahan",
    "lat": 30.56218,
    "lon": -81.83066,
    "population": 0
  },
  {
    "name": "Callaway",
    "lat": 30.15298,
    "lon": -85.56993,
    "population": 0
  },
  {
    "name": "Campbell",
    "lat": 28.2589,
    "lon": -81.45646,
    "population": 0
  },
  {
    "name": "Cantonment",
    "lat": 30.60853,
    "lon": -87.33998,
    "population": 0
  },
  {
    "name": "Cape Canaveral",
    "lat": 28.40584,
    "lon": -80.60477,
    "population": 0
  },
  {
    "name": "Cape Coral",
    "lat": 26.56285,
    "lon": -81.94953,
    "population": 0
  },
  {
    "name": "Carol City",
    "lat": 25.94065,
    "lon": -80.2456,
    "population": 0
  },
  {
    "name": "Carrabelle",
    "lat": 29.85326,
    "lon": -84.66435,
    "population": 0
  },
  {
    "name": "Carrollwood",
    "lat": 28.05002,
    "lon": -82.49287,
    "population": 0
  },
  {
    "name": "Carrollwood Village",
    "lat": 28.06752,
    "lon": -82.52093,
    "population": 0
  },
  {
    "name": "Carver Ranches",
    "lat": 25.98842,
    "lon": -80.19227,
    "population": 0
  },
  {
    "name": "Casselberry",
    "lat": 28.67778,
    "lon": -81.32785,
    "population": 0
  },
  {
    "name": "Cedar Grove",
    "lat": 30.17103,
    "lon": -85.6252,
    "population": 0
  },
  {
    "name": "Celebration",
    "lat": 28.32529,
    "lon": -81.53313,
    "population": 0
  },
  {
    "name": "Center Hill",
    "lat": 28.64999,
    "lon": -81.99258,
    "population": 0
  },
  {
    "name": "Century",
    "lat": 30.97324,
    "lon": -87.26386,
    "population": 0
  },
  {
    "name": "Charlotte Harbor",
    "lat": 26.95839,
    "lon": -82.06703,
    "population": 0
  },
  {
    "name": "Charlotte Park",
    "lat": 26.91006,
    "lon": -82.05398,
    "population": 0
  },
  {
    "name": "Chattahoochee",
    "lat": 30.70546,
    "lon": -84.84574,
    "population": 0
  },
  {
    "name": "Cheval",
    "lat": 28.14862,
    "lon": -82.51454,
    "population": 0
  },
  {
    "name": "Chiefland",
    "lat": 29.47496,
    "lon": -82.85984,
    "population": 0
  },
  {
    "name": "Chipley",
    "lat": 30.78186,
    "lon": -85.53854,
    "population": 0
  },
  {
    "name": "Christmas",
    "lat": 28.53639,
    "lon": -81.01756,
    "population": 0
  },
  {
    "name": "Chuluota",
    "lat": 28.64194,
    "lon": -81.1234,
    "population": 0
  },
  {
    "name": "Citra",
    "lat": 29.41192,
    "lon": -82.10982,
    "population": 0
  },
  {
    "name": "Citrus Hills",
    "lat": 28.88831,
    "lon": -82.4326,
    "population": 0
  },
  {
    "name": "Citrus Park",
    "lat": 28.07835,
    "lon": -82.56982,
    "population": 0
  },
  {
    "name": "Citrus Ridge",
    "lat": 28.33385,
    "lon": -81.64232,
    "population": 0
  },
  {
    "name": "Citrus Springs",
    "lat": 28.99748,
    "lon": -82.47065,
    "population": 0
  },
  {
    "name": "Clarcona",
    "lat": 28.61278,
    "lon": -81.49868,
    "population": 0
  },
  {
    "name": "Clearwater",
    "lat": 27.96585,
    "lon": -82.8001,
    "population": 0
  },
  {
    "name": "Clermont",
    "lat": 28.54944,
    "lon": -81.77285,
    "population": 0
  },
  {
    "name": "Clewiston",
    "lat": 26.75423,
    "lon": -80.93368,
    "population": 0
  },
  {
    "name": "Cleveland",
    "lat": 26.96173,
    "lon": -81.98398,
    "population": 0
  },
  {
    "name": "Cocoa",
    "lat": 28.38612,
    "lon": -80.742,
    "population": 0
  },
  {
    "name": "Cocoa Beach",
    "lat": 28.32055,
    "lon": -80.60922,
    "population": 0
  },
  {
    "name": "Coconut Creek",
    "lat": 26.25175,
    "lon": -80.17894,
    "population": 0
  },
  {
    "name": "Coconut Grove",
    "lat": 25.7126,
    "lon": -80.25699,
    "population": 0
  },
  {
    "name": "Combee Settlement",
    "lat": 28.05835,
    "lon": -81.90536,
    "population": 0
  },
  {
    "name": "Conway",
    "lat": 28.50278,
    "lon": -81.33062,
    "population": 0
  },
  {
    "name": "Cooper City",
    "lat": 26.05731,
    "lon": -80.27172,
    "population": 0
  },
  {
    "name": "Coral Gables",
    "lat": 25.72149,
    "lon": -80.26838,
    "population": 0
  },
  {
    "name": "Coral Springs",
    "lat": 26.27119,
    "lon": -80.2706,
    "population": 0
  },
  {
    "name": "Coral Terrace",
    "lat": 25.74593,
    "lon": -80.3045,
    "population": 0
  },
  {
    "name": "Cortez",
    "lat": 27.46921,
    "lon": -82.68621,
    "population": 0
  },
  {
    "name": "Country Walk",
    "lat": 25.63399,
    "lon": -80.43228,
    "population": 0
  },
  {
    "name": "Country Club",
    "lat": 25.94815,
    "lon": -80.317,
    "population": 0
  },
  {
    "name": "Crawfordville",
    "lat": 30.17604,
    "lon": -84.37518,
    "population": 0
  },
  {
    "name": "Crescent City",
    "lat": 29.43025,
    "lon": -81.51063,
    "population": 0
  },
  {
    "name": "Crestview",
    "lat": 30.76213,
    "lon": -86.57051,
    "population": 0
  },
  {
    "name": "Crooked Lake Park",
    "lat": 27.82919,
    "lon": -81.58397,
    "population": 0
  },
  {
    "name": "Cross City",
    "lat": 29.63465,
    "lon": -83.12694,
    "population": 0
  },
  {
    "name": "Crystal Lake",
    "lat": 28.03558,
    "lon": -81.90841,
    "population": 0
  },
  {
    "name": "Crystal River",
    "lat": 28.90248,
    "lon": -82.5926,
    "population": 0
  },
  {
    "name": "Crystal Springs",
    "lat": 28.1814,
    "lon": -82.15758,
    "population": 0
  },
  {
    "name": "Cudjoe Key",
    "lat": 24.67153,
    "lon": -81.49842,
    "population": 0
  },
  {
    "name": "Cutler",
    "lat": 25.6151,
    "lon": -80.31061,
    "population": 0
  },
  {
    "name": "Cutler Ridge",
    "lat": 25.58066,
    "lon": -80.34672,
    "population": 0
  },
  {
    "name": "Cypress Gardens",
    "lat": 27.99391,
    "lon": -81.69008,
    "population": 0
  },
  {
    "name": "Cypress Lake",
    "lat": 26.53813,
    "lon": -81.89925,
    "population": 0
  },
  {
    "name": "Cypress Quarters",
    "lat": 27.25199,
    "lon": -80.81395,
    "population": 0
  },
  {
    "name": "Dade City",
    "lat": 28.36472,
    "lon": -82.19592,
    "population": 0
  },
  {
    "name": "Dania Beach",
    "lat": 26.05231,
    "lon": -80.14393,
    "population": 0
  },
  {
    "name": "Davenport",
    "lat": 28.1614,
    "lon": -81.60174,
    "population": 0
  },
  {
    "name": "Davie",
    "lat": 26.06287,
    "lon": -80.2331,
    "population": 0
  },
  {
    "name": "Daytona Beach",
    "lat": 29.21081,
    "lon": -81.02283,
    "population": 0
  },
  {
    "name": "Daytona Beach Shores",
    "lat": 29.17609,
    "lon": -80.98283,
    "population": 0
  },
  {
    "name": "DeFuniak Springs",
    "lat": 30.72102,
    "lon": -86.11522,
    "population": 0
  },
  {
    "name": "DeLand",
    "lat": 29.02832,
    "lon": -81.30312,
    "population": 0
  },
  {
    "name": "De Leon Springs",
    "lat": 29.11989,
    "lon": -81.35286,
    "population": 0
  },
  {
    "name": "DeBary",
    "lat": 28.88305,
    "lon": -81.30868,
    "population": 0
  },
  {
    "name": "Deerfield Beach",
    "lat": 26.31841,
    "lon": -80.09977,
    "population": 0
  },
  {
    "name": "Delray Beach",
    "lat": 26.46146,
    "lon": -80.07282,
    "population": 0
  },
  {
    "name": "Deltona",
    "lat": 28.90054,
    "lon": -81.26367,
    "population": 0
  },
  {
    "name": "Desoto Lakes",
    "lat": 27.37143,
    "lon": -82.48982,
    "population": 0
  },
  {
    "name": "Destin",
    "lat": 30.39353,
    "lon": -86.49578,
    "population": 0
  },
  {
    "name": "Doctor Phillips",
    "lat": 28.44945,
    "lon": -81.49229,
    "population": 0
  },
  {
    "name": "Doral",
    "lat": 25.81954,
    "lon": -80.35533,
    "population": 0
  },
  {
    "name": "Dover",
    "lat": 27.99419,
    "lon": -82.21953,
    "population": 0
  },
  {
    "name": "Dundee",
    "lat": 28.02252,
    "lon": -81.61924,
    "population": 0
  },
  {
    "name": "Dunedin",
    "lat": 28.0199,
    "lon": -82.77323,
    "population": 0
  },
  {
    "name": "Dunnellon",
    "lat": 29.04914,
    "lon": -82.46093,
    "population": 0
  },
  {
    "name": "Eagle Lake",
    "lat": 27.97836,
    "lon": -81.75647,
    "population": 0
  },
  {
    "name": "East Lake",
    "lat": 28.11085,
    "lon": -82.69482,
    "population": 0
  },
  {
    "name": "East Milton",
    "lat": 30.61519,
    "lon": -87.02163,
    "population": 0
  },
  {
    "name": "East Naples",
    "lat": 26.13842,
    "lon": -81.76648,
    "population": 0
  },
  {
    "name": "East Palatka",
    "lat": 29.6583,
    "lon": -81.59841,
    "population": 0
  },
  {
    "name": "East Pensacola Heights",
    "lat": 30.42881,
    "lon": -87.17997,
    "population": 0
  },
  {
    "name": "East Perrine",
    "lat": 25.60872,
    "lon": -80.33894,
    "population": 0
  },
  {
    "name": "Eastpoint",
    "lat": 29.7366,
    "lon": -84.87852,
    "population": 0
  },
  {
    "name": "Eatonville",
    "lat": 28.61472,
    "lon": -81.38062,
    "population": 0
  },
  {
    "name": "Edgewater",
    "lat": 28.98888,
    "lon": -80.90228,
    "population": 0
  },
  {
    "name": "Edgewood",
    "lat": 28.48612,
    "lon": -81.37229,
    "population": 0
  },
  {
    "name": "Eglin Village",
    "lat": 30.46298,
    "lon": -86.5394,
    "population": 0
  },
  {
    "name": "Egypt Lake-Leto",
    "lat": 28.01769,
    "lon": -82.50619,
    "population": 0
  },
  {
    "name": "El Portal",
    "lat": 25.85537,
    "lon": -80.1931,
    "population": 0
  },
  {
    "name": "Elfers",
    "lat": 28.21668,
    "lon": -82.72232,
    "population": 0
  },
  {
    "name": "Ellenton",
    "lat": 27.52171,
    "lon": -82.5276,
    "population": 0
  },
  {
    "name": "Englewood",
    "lat": 26.96201,
    "lon": -82.3526,
    "population": 0
  },
  {
    "name": "Ensley",
    "lat": 30.51881,
    "lon": -87.27275,
    "population": 0
  },
  {
    "name": "Estero",
    "lat": 26.43814,
    "lon": -81.80675,
    "population": 0
  },
  {
    "name": "Eustis",
    "lat": 28.85277,
    "lon": -81.68535,
    "population": 0
  },
  {
    "name": "Fairview Shores",
    "lat": 28.59111,
    "lon": -81.39424,
    "population": 0
  },
  {
    "name": "Feather Sound",
    "lat": 27.90079,
    "lon": -82.67349,
    "population": 0
  },
  {
    "name": "Fellsmere",
    "lat": 27.76781,
    "lon": -80.60144,
    "population": 0
  },
  {
    "name": "Fern Park",
    "lat": 28.64916,
    "lon": -81.35118,
    "population": 0
  },
  {
    "name": "Fernandina Beach",
    "lat": 30.66968,
    "lon": -81.46259,
    "population": 0
  },
  {
    "name": "Ferry Pass",
    "lat": 30.5102,
    "lon": -87.21247,
    "population": 0
  },
  {
    "name": "Fish Hawk",
    "lat": 27.85058,
    "lon": -82.21092,
    "population": 0
  },
  {
    "name": "Five Points",
    "lat": 30.20912,
    "lon": -82.63735,
    "population": 0
  },
  {
    "name": "Flagami",
    "lat": 25.76232,
    "lon": -80.31616,
    "population": 0
  },
  {
    "name": "Flagler Beach",
    "lat": 29.47498,
    "lon": -81.127,
    "population": 0
  },
  {
    "name": "Fleming Island",
    "lat": 30.0933,
    "lon": -81.71898,
    "population": 0
  },
  {
    "name": "Floral City",
    "lat": 28.74999,
    "lon": -82.29676,
    "population": 0
  },
  {
    "name": "Florida City",
    "lat": 25.44789,
    "lon": -80.47922,
    "population": 0
  },
  {
    "name": "Florida Ridge",
    "lat": 27.58031,
    "lon": -80.38672,
    "population": 0
  },
  {
    "name": "Forest City",
    "lat": 28.66678,
    "lon": -81.44334,
    "population": 0
  },
  {
    "name": "Fort Lauderdale",
    "lat": 26.12231,
    "lon": -80.14338,
    "population": 0
  },
  {
    "name": "Fort Meade",
    "lat": 27.75225,
    "lon": -81.80175,
    "population": 0
  },
  {
    "name": "Fort Myers",
    "lat": 26.62168,
    "lon": -81.84059,
    "population": 0
  },
  {
    "name": "Fort Myers Beach",
    "lat": 26.45271,
    "lon": -81.95011,
    "population": 0
  },
  {
    "name": "Fort Myers Shores",
    "lat": 26.70924,
    "lon": -81.74592,
    "population": 0
  },
  {
    "name": "Fort Pierce",
    "lat": 27.44671,
    "lon": -80.32561,
    "population": 0
  },
  {
    "name": "Fort Walton Beach",
    "lat": 30.42059,
    "lon": -86.61707,
    "population": 0
  },
  {
    "name": "Fountainebleau",
    "lat": 25.77288,
    "lon": -80.34783,
    "population": 0
  },
  {
    "name": "Freeport",
    "lat": 30.49825,
    "lon": -86.13605,
    "population": 0
  },
  {
    "name": "Frostproof",
    "lat": 27.74586,
    "lon": -81.53063,
    "population": 0
  },
  {
    "name": "Fruit Cove",
    "lat": 30.11107,
    "lon": -81.64176,
    "population": 0
  },
  {
    "name": "Fruitland Park",
    "lat": 28.86138,
    "lon": -81.90647,
    "population": 0
  },
  {
    "name": "Fruitville",
    "lat": 27.32977,
    "lon": -82.4576,
    "population": 0
  },
  {
    "name": "Fuller Heights",
    "lat": 27.90919,
    "lon": -81.99814,
    "population": 0
  },
  {
    "name": "Fussels Corner",
    "lat": 28.05419,
    "lon": -81.86064,
    "population": 0
  },
  {
    "name": "Gainesville",
    "lat": 29.65163,
    "lon": -82.32483,
    "population": 0
  },
  {
    "name": "Gandy",
    "lat": 27.8685,
    "lon": -82.61612,
    "population": 0
  },
  {
    "name": "Gateway",
    "lat": 26.57757,
    "lon": -81.75036,
    "population": 0
  },
  {
    "name": "Geneva",
    "lat": 28.73972,
    "lon": -81.11506,
    "population": 0
  },
  {
    "name": "Gibsonia",
    "lat": 28.11474,
    "lon": -81.97369,
    "population": 0
  },
  {
    "name": "Gibsonton",
    "lat": 27.85364,
    "lon": -82.38259,
    "population": 0
  },
  {
    "name": "Gifford",
    "lat": 27.67531,
    "lon": -80.40922,
    "population": 0
  },
  {
    "name": "Gladeview",
    "lat": 25.83926,
    "lon": -80.2356,
    "population": 0
  },
  {
    "name": "Glencoe",
    "lat": 29.02582,
    "lon": -80.972,
    "population": 0
  },
  {
    "name": "Glenvar Heights",
    "lat": 25.7076,
    "lon": -80.32561,
    "population": 0
  },
  {
    "name": "Golden Gate",
    "lat": 26.18787,
    "lon": -81.69509,
    "population": 0
  },
  {
    "name": "Golden Glades",
    "lat": 25.91176,
    "lon": -80.20033,
    "population": 0
  },
  {
    "name": "Goldenrod",
    "lat": 28.61028,
    "lon": -81.28868,
    "population": 0
  },
  {
    "name": "Gonzalez",
    "lat": 30.58158,
    "lon": -87.29136,
    "population": 0
  },
  {
    "name": "Gotha",
    "lat": 28.52778,
    "lon": -81.52313,
    "population": 0
  },
  {
    "name": "Goulding",
    "lat": 30.44298,
    "lon": -87.22247,
    "population": 0
  },
  {
    "name": "Goulds",
    "lat": 25.56261,
    "lon": -80.38228,
    "population": 0
  },
  {
    "name": "Graceville",
    "lat": 30.95685,
    "lon": -85.5166,
    "population": 0
  },
  {
    "name": "Green Cove Springs",
    "lat": 29.99191,
    "lon": -81.67815,
    "population": 0
  },
  {
    "name": "Greenacres City",
    "lat": 26.62368,
    "lon": -80.12532,
    "population": 0
  },
  {
    "name": "Gretna",
    "lat": 30.61714,
    "lon": -84.65991,
    "population": 0
  },
  {
    "name": "Grove City",
    "lat": 26.91423,
    "lon": -82.32704,
    "population": 0
  },
  {
    "name": "Groveland",
    "lat": 28.55805,
    "lon": -81.85119,
    "population": 0
  },
  {
    "name": "Gulf Breeze",
    "lat": 30.35714,
    "lon": -87.16386,
    "population": 0
  },
  {
    "name": "Gulf Gate Estates",
    "lat": 27.25173,
    "lon": -82.51471,
    "population": 0
  },
  {
    "name": "Gulfport",
    "lat": 27.74836,
    "lon": -82.70343,
    "population": 0
  },
  {
    "name": "Haines City",
    "lat": 28.1145,
    "lon": -81.62009,
    "population": 0
  },
  {
    "name": "Hallandale Beach",
    "lat": 25.9812,
    "lon": -80.14838,
    "population": 0
  },
  {
    "name": "Harbor Bluffs",
    "lat": 27.90947,
    "lon": -82.8276,
    "population": 0
  },
  {
    "name": "Harbour Heights",
    "lat": 26.99089,
    "lon": -82.00231,
    "population": 0
  },
  {
    "name": "Harlem",
    "lat": 26.73757,
    "lon": -80.9509,
    "population": 0
  },
  {
    "name": "Harlem Heights",
    "lat": 26.51619,
    "lon": -81.92787,
    "population": 0
  },
  {
    "name": "Havana",
    "lat": 30.62381,
    "lon": -84.41463,
    "population": 0
  },
  {
    "name": "Haverhill",
    "lat": 26.69118,
    "lon": -80.12004,
    "population": 0
  },
  {
    "name": "Hawthorne",
    "lat": 29.59191,
    "lon": -82.08732,
    "population": 0
  },
  {
    "name": "Hawthorne",
    "lat": 28.76138,
    "lon": -81.87091,
    "population": 0
  },
  {
    "name": "Heathrow",
    "lat": 28.76333,
    "lon": -81.37225,
    "population": 0
  },
  {
    "name": "Hernando",
    "lat": 28.89998,
    "lon": -82.37454,
    "population": 0
  },
  {
    "name": "Hernando Beach",
    "lat": 28.46944,
    "lon": -82.65927,
    "population": 0
  },
  {
    "name": "Hialeah",
    "lat": 25.8576,
    "lon": -80.27811,
    "population": 0
  },
  {
    "name": "Hialeah Gardens",
    "lat": 25.8651,
    "lon": -80.3245,
    "population": 0
  },
  {
    "name": "High Springs",
    "lat": 29.82691,
    "lon": -82.59678,
    "population": 0
  },
  {
    "name": "Highland Beach",
    "lat": 26.39952,
    "lon": -80.0656,
    "population": 0
  },
  {
    "name": "Highland City",
    "lat": 27.9653,
    "lon": -81.87786,
    "population": 0
  },
  {
    "name": "Hiland Park",
    "lat": 30.20103,
    "lon": -85.62687,
    "population": 0
  },
  {
    "name": "Hill 'n Dale",
    "lat": 28.51972,
    "lon": -82.29926,
    "population": 0
  },
  {
    "name": "Hilliard",
    "lat": 30.69107,
    "lon": -81.91733,
    "population": 0
  },
  {
    "name": "Hillsboro Beach",
    "lat": 26.29397,
    "lon": -80.07893,
    "population": 0
  },
  {
    "name": "Hobe Sound",
    "lat": 27.0595,
    "lon": -80.13643,
    "population": 0
  },
  {
    "name": "Holden Heights",
    "lat": 28.49667,
    "lon": -81.38785,
    "population": 0
  },
  {
    "name": "Holiday",
    "lat": 28.18779,
    "lon": -82.73955,
    "population": 0
  },
  {
    "name": "Holley",
    "lat": 30.44686,
    "lon": -86.90691,
    "population": 0
  },
  {
    "name": "Holly Hill",
    "lat": 29.24359,
    "lon": -81.03756,
    "population": 0
  },
  {
    "name": "Hollywood",
    "lat": 26.0112,
    "lon": -80.14949,
    "population": 0
  },
  {
    "name": "Holmes Beach",
    "lat": 27.49532,
    "lon": -82.71093,
    "population": 0
  },
  {
    "name": "Homestead",
    "lat": 25.46872,
    "lon": -80.47756,
    "population": 0
  },
  {
    "name": "Homosassa",
    "lat": 28.78137,
    "lon": -82.6151,
    "population": 0
  },
  {
    "name": "Homosassa Springs",
    "lat": 28.80359,
    "lon": -82.57593,
    "population": 0
  },
  {
    "name": "Howey-in-the-Hills",
    "lat": 28.71694,
    "lon": -81.77341,
    "population": 0
  },
  {
    "name": "Hudson",
    "lat": 28.36445,
    "lon": -82.69343,
    "population": 0
  },
  {
    "name": "Hunters Creek",
    "lat": 28.36056,
    "lon": -81.42229,
    "population": 0
  },
  {
    "name": "Hypoluxo",
    "lat": 26.56646,
    "lon": -80.05337,
    "population": 0
  },
  {
    "name": "Immokalee",
    "lat": 26.41869,
    "lon": -81.4173,
    "population": 0
  },
  {
    "name": "Indialantic",
    "lat": 28.08946,
    "lon": -80.56561,
    "population": 0
  },
  {
    "name": "Indian Harbour Beach",
    "lat": 28.1489,
    "lon": -80.58839,
    "population": 0
  },
  {
    "name": "Indian River Estates",
    "lat": 27.36449,
    "lon": -80.30977,
    "population": 0
  },
  {
    "name": "Indian River Shores",
    "lat": 27.7167,
    "lon": -80.38422,
    "population": 0
  },
  {
    "name": "Indian Rocks Beach",
    "lat": 27.8753,
    "lon": -82.85122,
    "population": 0
  },
  {
    "name": "Indian Shores",
    "lat": 27.8628,
    "lon": -82.84844,
    "population": 0
  },
  {
    "name": "Indiantown",
    "lat": 27.02728,
    "lon": -80.48561,
    "population": 0
  },
  {
    "name": "Inglis",
    "lat": 29.03025,
    "lon": -82.66872,
    "population": 0
  },
  {
    "name": "Interlachen",
    "lat": 29.62421,
    "lon": -81.89256,
    "population": 0
  },
  {
    "name": "Inverness",
    "lat": 28.83582,
    "lon": -82.33037,
    "population": 0
  },
  {
    "name": "Inwood",
    "lat": 28.03697,
    "lon": -81.76508,
    "population": 0
  },
  {
    "name": "Iona",
    "lat": 26.52036,
    "lon": -81.96398,
    "population": 0
  },
  {
    "name": "Islamorada",
    "lat": 24.9243,
    "lon": -80.62784,
    "population": 0
  },
  {
    "name": "Isle of Normandy",
    "lat": 25.85287,
    "lon": -80.13505,
    "population": 0
  },
  {
    "name": "Ives Estates",
    "lat": 25.96231,
    "lon": -80.17671,
    "population": 0
  },
  {
    "name": "Jacksonville",
    "lat": 30.33218,
    "lon": -81.65565,
    "population": 0
  },
  {
    "name": "Jacksonville Beach",
    "lat": 30.29469,
    "lon": -81.39314,
    "population": 0
  },
  {
    "name": "Jan-Phyl Village",
    "lat": 28.01474,
    "lon": -81.77175,
    "population": 0
  },
  {
    "name": "Jasmine Estates",
    "lat": 28.29306,
    "lon": -82.6901,
    "population": 0
  },
  {
    "name": "Jasper",
    "lat": 30.51827,
    "lon": -82.94819,
    "population": 0
  },
  {
    "name": "Jensen Beach",
    "lat": 27.25449,
    "lon": -80.22977,
    "population": 0
  },
  {
    "name": "June Park",
    "lat": 28.07224,
    "lon": -80.68006,
    "population": 0
  },
  {
    "name": "Juno Beach",
    "lat": 26.87978,
    "lon": -80.05337,
    "population": 0
  },
  {
    "name": "Jupiter",
    "lat": 26.93422,
    "lon": -80.09421,
    "population": 0
  },
  {
    "name": "Kathleen",
    "lat": 28.12085,
    "lon": -82.02314,
    "population": 0
  },
  {
    "name": "Kendale Lakes",
    "lat": 25.70816,
    "lon": -80.407,
    "population": 0
  },
  {
    "name": "Kendall",
    "lat": 25.67927,
    "lon": -80.31727,
    "population": 0
  },
  {
    "name": "Kendall Green",
    "lat": 26.25397,
    "lon": -80.12393,
    "population": 0
  },
  {
    "name": "Kenneth City",
    "lat": 27.81558,
    "lon": -82.7201,
    "population": 0
  },
  {
    "name": "Kensington Park",
    "lat": 27.35949,
    "lon": -82.49649,
    "population": 0
  },
  {
    "name": "Key Biscayne",
    "lat": 25.69371,
    "lon": -80.16282,
    "population": 0
  },
  {
    "name": "Key Largo",
    "lat": 25.08652,
    "lon": -80.44728,
    "population": 0
  },
  {
    "name": "Key West",
    "lat": 24.55524,
    "lon": -81.78163,
    "population": 0
  },
  {
    "name": "Keystone",
    "lat": 28.15585,
    "lon": -82.62121,
    "population": 0
  },
  {
    "name": "Keystone Heights",
    "lat": 29.78608,
    "lon": -82.03149,
    "population": 0
  },
  {
    "name": "Kings Point",
    "lat": 26.44535,
    "lon": -80.13977,
    "population": 0
  },
  {
    "name": "Kissimmee",
    "lat": 28.30468,
    "lon": -81.41667,
    "population": 0
  },
  {
    "name": "LaBelle",
    "lat": 26.76173,
    "lon": -81.43841,
    "population": 0
  },
  {
    "name": "Lacoochee",
    "lat": 28.46583,
    "lon": -82.17203,
    "population": 0
  },
  {
    "name": "Lady Lake",
    "lat": 28.91749,
    "lon": -81.92286,
    "population": 0
  },
  {
    "name": "Laguna Beach",
    "lat": 30.23965,
    "lon": -85.9241,
    "population": 0
  },
  {
    "name": "Lake Alfred",
    "lat": 28.09196,
    "lon": -81.72341,
    "population": 0
  },
  {
    "name": "Lake Belvedere Estates",
    "lat": 26.68923,
    "lon": -80.13338,
    "population": 0
  },
  {
    "name": "Lake Butler",
    "lat": 30.02274,
    "lon": -82.33956,
    "population": 0
  },
  {
    "name": "Lake Butler",
    "lat": 28.50167,
    "lon": -81.54091,
    "population": 0
  },
  {
    "name": "Lake City",
    "lat": 30.18968,
    "lon": -82.63929,
    "population": 0
  },
  {
    "name": "Lake Clarke Shores",
    "lat": 26.64534,
    "lon": -80.07588,
    "population": 0
  },
  {
    "name": "Lake Forest",
    "lat": 25.97759,
    "lon": -80.1831,
    "population": 0
  },
  {
    "name": "Lake Hamilton",
    "lat": 28.04446,
    "lon": -81.62785,
    "population": 0
  },
  {
    "name": "Lake Helen",
    "lat": 28.98082,
    "lon": -81.23339,
    "population": 0
  },
  {
    "name": "Lake Lorraine",
    "lat": 30.44159,
    "lon": -86.56523,
    "population": 0
  },
  {
    "name": "Lake Lucerne",
    "lat": 25.96509,
    "lon": -80.24144,
    "population": 0
  },
  {
    "name": "Lake Magdalene",
    "lat": 28.07418,
    "lon": -82.47176,
    "population": 0
  },
  {
    "name": "Lake Panasoffkee",
    "lat": 28.75582,
    "lon": -82.09481,
    "population": 0
  },
  {
    "name": "Lake Park",
    "lat": 26.80034,
    "lon": -80.06643,
    "population": 0
  },
  {
    "name": "Lake Placid",
    "lat": 27.35197,
    "lon": -81.32631,
    "population": 0
  },
  {
    "name": "Lake Sarasota",
    "lat": 27.29255,
    "lon": -82.4376,
    "population": 0
  },
  {
    "name": "Lake Mary",
    "lat": 28.75888,
    "lon": -81.31784,
    "population": 0
  },
  {
    "name": "Lake Wales",
    "lat": 27.90141,
    "lon": -81.58591,
    "population": 0
  },
  {
    "name": "Lake Worth",
    "lat": 26.61708,
    "lon": -80.07231,
    "population": 0
  },
  {
    "name": "Lake Worth Corridor",
    "lat": 26.61649,
    "lon": -80.10102,
    "population": 0
  },
  {
    "name": "Lakeland",
    "lat": 28.03947,
    "lon": -81.9498,
    "population": 0
  },
  {
    "name": "Lakeland Highlands",
    "lat": 27.95975,
    "lon": -81.95008,
    "population": 0
  },
  {
    "name": "Lakes by the Bay",
    "lat": 25.57233,
    "lon": -80.32533,
    "population": 0
  },
  {
    "name": "Lakeside",
    "lat": 30.12996,
    "lon": -81.76815,
    "population": 0
  },
  {
    "name": "Lakewood Park",
    "lat": 27.54309,
    "lon": -80.40227,
    "population": 0
  },
  {
    "name": "Lakewood Park",
    "lat": 27.48143,
    "lon": -80.37422,
    "population": 0
  },
  {
    "name": "Land O' Lakes",
    "lat": 28.2189,
    "lon": -82.45759,
    "population": 0
  },
  {
    "name": "Lantana",
    "lat": 26.58674,
    "lon": -80.05199,
    "population": 0
  },
  {
    "name": "Largo",
    "lat": 27.90979,
    "lon": -82.78842,
    "population": 0
  },
  {
    "name": "Lauderdale Lakes",
    "lat": 26.16647,
    "lon": -80.20838,
    "population": 0
  },
  {
    "name": "Lauderdale-by-the-Sea",
    "lat": 26.19203,
    "lon": -80.09643,
    "population": 0
  },
  {
    "name": "Lauderhill",
    "lat": 26.14036,
    "lon": -80.21338,
    "population": 0
  },
  {
    "name": "Laurel",
    "lat": 27.14378,
    "lon": -82.46158,
    "population": 0
  },
  {
    "name": "Lealman",
    "lat": 27.82114,
    "lon": -82.67927,
    "population": 0
  },
  {
    "name": "Lecanto",
    "lat": 28.85165,
    "lon": -82.4876,
    "population": 0
  },
  {
    "name": "Leesburg",
    "lat": 28.81082,
    "lon": -81.87786,
    "population": 0
  },
  {
    "name": "Lehigh Acres",
    "lat": 26.62535,
    "lon": -81.6248,
    "population": 0
  },
  {
    "name": "Leisure City",
    "lat": 25.49539,
    "lon": -80.42922,
    "population": 0
  },
  {
    "name": "Lely",
    "lat": 26.10065,
    "lon": -81.72842,
    "population": 0
  },
  {
    "name": "Lely Resort",
    "lat": 26.08093,
    "lon": -81.69786,
    "population": 0
  },
  {
    "name": "Lighthouse Point",
    "lat": 26.27564,
    "lon": -80.08727,
    "population": 0
  },
  {
    "name": "Limestone Creek",
    "lat": 26.94284,
    "lon": -80.14115,
    "population": 0
  },
  {
    "name": "Live Oak",
    "lat": 30.29495,
    "lon": -82.98402,
    "population": 0
  },
  {
    "name": "Lochmoor Waterway Estates",
    "lat": 26.64424,
    "lon": -81.90981,
    "population": 0
  },
  {
    "name": "Lockhart",
    "lat": 28.61944,
    "lon": -81.44257,
    "population": 0
  },
  {
    "name": "Longboat Key",
    "lat": 27.41254,
    "lon": -82.65899,
    "population": 0
  },
  {
    "name": "Longwood",
    "lat": 28.70305,
    "lon": -81.3384,
    "population": 0
  },
  {
    "name": "Loughman",
    "lat": 28.24196,
    "lon": -81.56674,
    "population": 0
  },
  {
    "name": "Lower Grand Lagoon",
    "lat": 30.14409,
    "lon": -85.75076,
    "population": 0
  },
  {
    "name": "Loxahatchee Groves",
    "lat": 26.68368,
    "lon": -80.27977,
    "population": 0
  },
  {
    "name": "Lutz",
    "lat": 28.15112,
    "lon": -82.46148,
    "population": 0
  },
  {
    "name": "Lynn Haven",
    "lat": 30.24548,
    "lon": -85.64826,
    "population": 0
  },
  {
    "name": "Macclenny",
    "lat": 30.28218,
    "lon": -82.12206,
    "population": 0
  },
  {
    "name": "Madeira Beach",
    "lat": 27.79808,
    "lon": -82.79732,
    "population": 0
  },
  {
    "name": "Madison",
    "lat": 30.46938,
    "lon": -83.41293,
    "population": 0
  },
  {
    "name": "Maitland",
    "lat": 28.62778,
    "lon": -81.36312,
    "population": 0
  },
  {
    "name": "Malabar",
    "lat": 28.00363,
    "lon": -80.56561,
    "population": 0
  },
  {
    "name": "Malone",
    "lat": 30.95769,
    "lon": -85.16215,
    "population": 0
  },
  {
    "name": "Manasota Key",
    "lat": 26.92534,
    "lon": -82.35204,
    "population": 0
  },
  {
    "name": "Manatee Road",
    "lat": 29.51302,
    "lon": -82.91429,
    "population": 0
  },
  {
    "name": "Mango",
    "lat": 27.97974,
    "lon": -82.30648,
    "population": 0
  },
  {
    "name": "Mangonia Park",
    "lat": 26.76034,
    "lon": -80.07365,
    "population": 0
  },
  {
    "name": "Marathon",
    "lat": 24.71375,
    "lon": -81.09035,
    "population": 0
  },
  {
    "name": "Marco",
    "lat": 25.9726,
    "lon": -81.72898,
    "population": 0
  },
  {
    "name": "Marco Island",
    "lat": 25.94121,
    "lon": -81.71842,
    "population": 0
  },
  {
    "name": "Margate",
    "lat": 26.24453,
    "lon": -80.20644,
    "population": 0
  },
  {
    "name": "Marianna",
    "lat": 30.77436,
    "lon": -85.22687,
    "population": 0
  },
  {
    "name": "Mary Esther",
    "lat": 30.41015,
    "lon": -86.66509,
    "population": 0
  },
  {
    "name": "Masaryktown",
    "lat": 28.44167,
    "lon": -82.45704,
    "population": 0
  },
  {
    "name": "Mascotte",
    "lat": 28.57833,
    "lon": -81.88675,
    "population": 0
  },
  {
    "name": "Mayo",
    "lat": 30.053,
    "lon": -83.17486,
    "population": 0
  },
  {
    "name": "McGregor",
    "lat": 26.56091,
    "lon": -81.91453,
    "population": 0
  },
  {
    "name": "Meadow Woods",
    "lat": 28.38556,
    "lon": -81.36646,
    "population": 0
  },
  {
    "name": "Medulla",
    "lat": 27.9678,
    "lon": -81.97342,
    "population": 0
  },
  {
    "name": "Melbourne",
    "lat": 28.08363,
    "lon": -80.60811,
    "population": 0
  },
  {
    "name": "Melbourne Beach",
    "lat": 28.06835,
    "lon": -80.56033,
    "population": 0
  },
  {
    "name": "Melrose Park",
    "lat": 26.11342,
    "lon": -80.19338,
    "population": 0
  },
  {
    "name": "Memphis",
    "lat": 27.53587,
    "lon": -82.56121,
    "population": 0
  },
  {
    "name": "Merritt Island",
    "lat": 28.53917,
    "lon": -80.672,
    "population": 0
  },
  {
    "name": "Mexico Beach",
    "lat": 29.94809,
    "lon": -85.41995,
    "population": 0
  },
  {
    "name": "Miami",
    "lat": 25.77427,
    "lon": -80.19366,
    "population": 0
  },
  {
    "name": "Miami Beach",
    "lat": 25.79065,
    "lon": -80.13005,
    "population": 0
  },
  {
    "name": "Miami Gardens",
    "lat": 25.97981,
    "lon": -80.20255,
    "population": 0
  },
  {
    "name": "Miami Gardens",
    "lat": 25.94204,
    "lon": -80.2456,
    "population": 0
  },
  {
    "name": "Miami Lakes",
    "lat": 25.90871,
    "lon": -80.30866,
    "population": 0
  },
  {
    "name": "Miami Shores",
    "lat": 25.86315,
    "lon": -80.19283,
    "population": 0
  },
  {
    "name": "Miami Springs",
    "lat": 25.82232,
    "lon": -80.2895,
    "population": 0
  },
  {
    "name": "Micco",
    "lat": 27.88058,
    "lon": -80.50033,
    "population": 0
  },
  {
    "name": "Midway",
    "lat": 30.49548,
    "lon": -84.45435,
    "population": 0
  },
  {
    "name": "Midway",
    "lat": 28.79027,
    "lon": -81.2309,
    "population": 0
  },
  {
    "name": "Middleburg",
    "lat": 30.06885,
    "lon": -81.86038,
    "population": 0
  },
  {
    "name": "Milton",
    "lat": 30.63241,
    "lon": -87.03969,
    "population": 0
  },
  {
    "name": "Mims",
    "lat": 28.66527,
    "lon": -80.84478,
    "population": 0
  },
  {
    "name": "Minneola",
    "lat": 28.57444,
    "lon": -81.74619,
    "population": 0
  },
  {
    "name": "Miramar",
    "lat": 25.98731,
    "lon": -80.23227,
    "population": 0
  },
  {
    "name": "Miramar Beach",
    "lat": 30.37437,
    "lon": -86.35856,
    "population": 0
  },
  {
    "name": "Molino",
    "lat": 30.72408,
    "lon": -87.31414,
    "population": 0
  },
  {
    "name": "Monticello",
    "lat": 30.54515,
    "lon": -83.8713,
    "population": 0
  },
  {
    "name": "Montverde",
    "lat": 28.60028,
    "lon": -81.67396,
    "population": 0
  },
  {
    "name": "Moore Haven",
    "lat": 26.83312,
    "lon": -81.09312,
    "population": 0
  },
  {
    "name": "Mount Dora",
    "lat": 28.80249,
    "lon": -81.64452,
    "population": 0
  },
  {
    "name": "Mount Plymouth",
    "lat": 28.80805,
    "lon": -81.53313,
    "population": 0
  },
  {
    "name": "Mulberry",
    "lat": 27.8953,
    "lon": -81.97342,
    "population": 0
  },
  {
    "name": "Myrtle Grove",
    "lat": 30.42103,
    "lon": -87.30747,
    "population": 0
  },
  {
    "name": "Naples",
    "lat": 26.14234,
    "lon": -81.79596,
    "population": 0
  },
  {
    "name": "Naples Manor",
    "lat": 26.0887,
    "lon": -81.7262,
    "population": 0
  },
  {
    "name": "Naples Park",
    "lat": 26.26175,
    "lon": -81.80925,
    "population": 0
  },
  {
    "name": "Naranja",
    "lat": 25.51816,
    "lon": -80.42283,
    "population": 0
  },
  {
    "name": "Navarre",
    "lat": 30.40159,
    "lon": -86.86357,
    "population": 0
  },
  {
    "name": "Neptune Beach",
    "lat": 30.31191,
    "lon": -81.39647,
    "population": 0
  },
  {
    "name": "New Port Richey",
    "lat": 28.24418,
    "lon": -82.71927,
    "population": 0
  },
  {
    "name": "New Smyrna Beach",
    "lat": 29.02582,
    "lon": -80.927,
    "population": 0
  },
  {
    "name": "Newberry",
    "lat": 29.64635,
    "lon": -82.6065,
    "population": 0
  },
  {
    "name": "Niceville",
    "lat": 30.51686,
    "lon": -86.48217,
    "population": 0
  },
  {
    "name": "Nocatee",
    "lat": 27.16033,
    "lon": -81.88231,
    "population": 0
  },
  {
    "name": "Nokomis",
    "lat": 27.11922,
    "lon": -82.44426,
    "population": 0
  },
  {
    "name": "Norland",
    "lat": 25.94898,
    "lon": -80.21227,
    "population": 0
  },
  {
    "name": "North Andrews Gardens",
    "lat": 26.19147,
    "lon": -80.14421,
    "population": 0
  },
  {
    "name": "North Bay Village",
    "lat": 25.84621,
    "lon": -80.15394,
    "population": 0
  },
  {
    "name": "North Brooksville",
    "lat": 28.57305,
    "lon": -82.40815,
    "population": 0
  },
  {
    "name": "North DeLand",
    "lat": 29.04943,
    "lon": -81.29812,
    "population": 0
  },
  {
    "name": "North Fort Myers",
    "lat": 26.66729,
    "lon": -81.88009,
    "population": 0
  },
  {
    "name": "North Key Largo",
    "lat": 25.26734,
    "lon": -80.32339,
    "population": 0
  },
  {
    "name": "North Lauderdale",
    "lat": 26.2173,
    "lon": -80.22588,
    "population": 0
  },
  {
    "name": "North Miami",
    "lat": 25.89009,
    "lon": -80.18671,
    "population": 0
  },
  {
    "name": "North Miami Beach",
    "lat": 25.93315,
    "lon": -80.16255,
    "population": 0
  },
  {
    "name": "North Palm Beach",
    "lat": 26.81756,
    "lon": -80.08199,
    "population": 0
  },
  {
    "name": "North Port",
    "lat": 27.04422,
    "lon": -82.23593,
    "population": 0
  },
  {
    "name": "North Redington Beach",
    "lat": 27.81614,
    "lon": -82.82066,
    "population": 0
  },
  {
    "name": "North River Shores",
    "lat": 27.21755,
    "lon": -80.26977,
    "population": 0
  },
  {
    "name": "North Sarasota",
    "lat": 27.37393,
    "lon": -82.51843,
    "population": 0
  },
  {
    "name": "Oak Hill",
    "lat": 28.86443,
    "lon": -80.8545,
    "population": 0
  },
  {
    "name": "Oak Ridge",
    "lat": 28.47112,
    "lon": -81.42452,
    "population": 0
  },
  {
    "name": "Oakland",
    "lat": 28.555,
    "lon": -81.63313,
    "population": 0
  },
  {
    "name": "Oakland Park",
    "lat": 26.17231,
    "lon": -80.13199,
    "population": 0
  },
  {
    "name": "Ocala",
    "lat": 29.1872,
    "lon": -82.14009,
    "population": 0
  },
  {
    "name": "Ocean City",
    "lat": 30.44103,
    "lon": -86.61356,
    "population": 0
  },
  {
    "name": "Ocean Ridge",
    "lat": 26.52702,
    "lon": -80.04837,
    "population": 0
  },
  {
    "name": "Ocoee",
    "lat": 28.56917,
    "lon": -81.54396,
    "population": 0
  },
  {
    "name": "Odessa",
    "lat": 28.1939,
    "lon": -82.59176,
    "population": 0
  },
  {
    "name": "Ojus",
    "lat": 25.94843,
    "lon": -80.1506,
    "population": 0
  },
  {
    "name": "Okeechobee",
    "lat": 27.24393,
    "lon": -80.82978,
    "population": 0
  },
  {
    "name": "Oldsmar",
    "lat": 28.03418,
    "lon": -82.6651,
    "population": 0
  },
  {
    "name": "Olga",
    "lat": 26.71896,
    "lon": -81.7123,
    "population": 0
  },
  {
    "name": "Olympia Heights",
    "lat": 25.72677,
    "lon": -80.35533,
    "population": 0
  },
  {
    "name": "Opa-locka",
    "lat": 25.90232,
    "lon": -80.25033,
    "population": 0
  },
  {
    "name": "Orange City",
    "lat": 28.94888,
    "lon": -81.29867,
    "population": 0
  },
  {
    "name": "Orange Park",
    "lat": 30.16607,
    "lon": -81.70648,
    "population": 0
  },
  {
    "name": "Orangetree",
    "lat": 26.29286,
    "lon": -81.58842,
    "population": 0
  },